Protocol,SourceIP,SourcePort,DestinationIP,DestinationPort,EventCallSign,How,Opex,QOS,Stale,Start,Time,EventType,UUID,Version,ce,hae,Lat,le,Lon,CallSign,Endpoint,ExtendedCot,Course,Slope,Speed,GimbalPitch,GimbalRoll,GimbalYaw,HomeLat,HomeLon,Azimuth,Elevation,FOV,Model,North,Range,Roll,SensorType,BatteryMaxCapacity,BatteryRemainingCapacity,FlightTime,VehicleType,TypeTag,Voltage,GPS,RSSI,URL,ImageParentCallSign,ImageRelation,ImageLinkUID,ImageHeight,ImageWidth,ImageSize,ImageMime,ImageType,ImageURL,ImageFile
UDP,10.60.11.11,57346,239.2.3.1,6969,MCAS-2-AI2C,m-f,s,7-r-c,2022-05-04T00:38:48Z,2022-05-03T14:38:48Z,2022-05-03T14:38:48Z,a-f-G-E-V,grizA,2.0,0.5,183.482254,32.879947,0.5,-114.203989,MCAS-2-AI2C,192.168.42.158:4242:tcp,true,0,0,10,60,0,0,0,0,0,60,100,mcas,180,0,0,r-e,100,99,0,MAVLink,_MAVLink_,16.8,11,96,rtsp://192.168.166.176:8900/live,,,,,,,,,,
UDP,10.60.11.11,39399,239.2.3.1,6969,MCAS-1-AI2C2,m-f,s,7-r-c,2022-05-04T00:38:48Z,2022-05-03T14:38:48Z,2022-05-03T14:38:48Z,a-f-G-E-V,bae,2.0,0.5,181.333191,32.8768718,0.5,-114.206172,MCAS-1-AI2C2,192.168.42.158:4242:tcp,true,0,0,10,60,0,0,0,0,0,60,100,mcas,180,0,0,r-e,100,99,0,MAVLink,_MAVLink_,16.8,11,96,rtsp://192.168.166.176:8900/live,,,,,,,,,,
UDP,10.60.11.11,41884,239.2.3.1,6969,MCAS-2-AI2C2,m-f,s,7-r-c,2022-05-04T00:38:48Z,2022-05-03T14:38:48Z,2022-05-03T14:38:48Z,a-f-G-E-V,grizB,2.0,0.5,181.345352,32.8783171,0.5,-114.206736,MCAS-2-AI2C2,192.168.42.158:4242:tcp,true,0,0,10,60,0,0,0,0,0,60,100,mcas,180,0,0,r-e,100,99,0,MAVLink,_MAVLink_,16.8,11,96,rtsp://192.168.166.176:8900/live,,,,,,,,,,
UDP,10.60.11.11,49850,239.2.3.1,6969,MCAS-1-AI2C,m-f,s,7-r-c,2022-05-04T00:38:48Z,2022-05-03T14:38:48Z,2022-05-03T14:38:48Z,a-f-G-E-V,m5,2.0,0.5,182.027176,32.8806515,0.5,-114.21049,MCAS-1-AI2C,192.168.42.158:4242:tcp,true,0,0,10,60,0,0,0,0,0,60,100,mcas,180,0,0,r-e,100,99,0,MAVLink,_MAVLink_,16.8,11,96,rtsp://192.168.166.176:8900/live,,,,,,,,,,
UDP,10.60.11.11,57346,239.2.3.1,6969,MCAS-2-AI2C,m-f,s,7-r-c,2022-05-04T00:38:48Z,2022-05-03T14:38:48Z,2022-05-03T14:38:48Z,a-f-G-E-V,grizA,2.0,0.5,183.567764,32.8799294,0.5,-114.203977,MCAS-2-AI2C,192.168.42.158:4242:tcp,true,0,0,10,60,0,0,0,0,0,60,100,mcas,180,0,0,r-e,100,99,0,MAVLink,_MAVLink_,16.8,11,96,rtsp://192.168.166.176:8900/live,,,,,,,,,,
UDP,10.60.11.11,39399,239.2.3.1,6969,MCAS-1-AI2C2,m-f,s,7-r-c,2022-05-04T00:38:48Z,2022-05-03T14:38:48Z,2022-05-03T14:38:48Z,a-f-G-E-V,bae,2.0,0.5,181.271744,32.8768871,0.5,-114.206173,MCAS-1-AI2C2,192.168.42.158:4242:tcp,true,0,0,10,60,0,0,0,0,0,60,100,mcas,180,0,0,r-e,100,99,0,MAVLink,_MAVLink_,16.8,11,96,rtsp://192.168.166.176:8900/live,,,,,,,,,,
UDP,10.60.11.11,49850,239.2.3.1,6969,MCAS-1-AI2C,m-f,s,7-r-c,2022-05-04T00:38:48Z,2022-05-03T14:38:48Z,2022-05-03T14:38:48Z,a-f-G-E-V,m5,2.0,0.5,182.039993,32.8806636,0.5,-114.210476,MCAS-1-AI2C,192.168.42.158:4242:tcp,true,0,0,10,60,0,0,0,0,0,60,100,mcas,180,0,0,r-e,100,99,0,MAVLink,_MAVLink_,16.8,11,96,rtsp://192.168.166.176:8900/live,,,,,,,,,,
UDP,10.60.11.11,41884,239.2.3.1,6969,MCAS-2-AI2C2,m-f,s,7-r-c,2022-05-04T00:38:48Z,2022-05-03T14:38:48Z,2022-05-03T14:38:48Z,a-f-G-E-V,grizB,2.0,0.5,181.381302,32.878331,0.5,-114.206723,MCAS-2-AI2C2,192.168.42.158:4242:tcp,true,0,0,10,60,0,0,0,0,0,60,100,mcas,180,0,0,r-e,100,99,0,MAVLink,_MAVLink_,16.8,11,96,rtsp://192.168.166.176:8900/live,,,,,,,,,,
UDP,10.60.11.11,57346,239.2.3.1,6969,MCAS-2-AI2C,m-f,s,7-r-c,2022-05-04T00:38:48Z,2022-05-03T14:38:48Z,2022-05-03T14:38:48Z,a-f-G-E-V,grizA,2.0,0.5,183.638,32.8799081,0.5,-114.203963,MCAS-2-AI2C,192.168.42.158:4242:tcp,true,0,0,10,60,0,0,0,0,0,60,100,mcas,180,0,0,r-e,100,99,0,MAVLink,_MAVLink_,16.8,11,96,rtsp://192.168.166.176:8900/live,,,,,,,,,,
UDP,10.60.11.11,39399,239.2.3.1,6969,MCAS-1-AI2C2,m-f,s,7-r-c,2022-05-04T00:38:48Z,2022-05-03T14:38:48Z,2022-05-03T14:38:48Z,a-f-G-E-V,bae,2.0,0.5,181.191254,32.8769029,0.5,-114.206172,MCAS-1-AI2C2,192.168.42.158:4242:tcp,true,0,0,10,60,0,0,0,0,0,60,100,mcas,180,0,0,r-e,100,99,0,MAVLink,_MAVLink_,16.8,11,96,rtsp://192.168.166.176:8900/live,,,,,,,,,,
UDP,10.60.11.11,49850,239.2.3.1,6969,MCAS-1-AI2C,m-f,s,7-r-c,2022-05-04T00:38:48Z,2022-05-03T14:38:48Z,2022-05-03T14:38:48Z,a-f-G-E-V,m5,2.0,0.5,182.058044,32.8806752,0.5,-114.210462,MCAS-1-AI2C,192.168.42.158:4242:tcp,true,0,0,10,60,0,0,0,0,0,60,100,mcas,180,0,0,r-e,100,99,0,MAVLink,_MAVLink_,16.8,11,96,rtsp://192.168.166.176:8900/live,,,,,,,,,,
UDP,10.60.11.11,41884,239.2.3.1,6969,MCAS-2-AI2C2,m-f,s,7-r-c,2022-05-04T00:38:48Z,2022-05-03T14:38:48Z,2022-05-03T14:38:48Z,a-f-G-E-V,grizB,2.0,0.5,181.416046,32.8783449,0.5,-114.20671,MCAS-2-AI2C2,192.168.42.158:4242:tcp,true,0,0,10,60,0,0,0,0,0,60,100,mcas,180,0,0,r-e,100,99,0,MAVLink,_MAVLink_,16.8,11,96,rtsp://192.168.166.176:8900/live,,,,,,,,,,
UDP,10.60.11.11,57346,239.2.3.1,6969,MCAS-2-AI2C,m-f,s,7-r-c,2022-05-04T00:38:48Z,2022-05-03T14:38:48Z,2022-05-03T14:38:48Z,a-f-G-E-V,grizA,2.0,0.5,183.638306,32.8798914,0.5,-114.203951,MCAS-2-AI2C,192.168.42.158:4242:tcp,true,0,0,10,60,0,0,0,0,0,60,100,mcas,180,0,0,r-e,100,99,0,MAVLink,_MAVLink_,16.8,11,96,rtsp://192.168.166.176:8900/live,,,,,,,,,,
UDP,10.60.11.11,49850,239.2.3.1,6969,MCAS-1-AI2C,m-f,s,7-r-c,2022-05-04T00:38:48Z,2022-05-03T14:38:48Z,2022-05-03T14:38:48Z,a-f-G-E-V,m5,2.0,0.5,182.072937,32.8806871,0.5,-114.210448,MCAS-1-AI2C,192.168.42.158:4242:tcp,true,0,0,10,60,0,0,0,0,0,60,100,mcas,180,0,0,r-e,100,99,0,MAVLink,_MAVLink_,16.8,11,96,rtsp://192.168.166.176:8900/live,,,,,,,,,,
UDP,10.60.11.11,39399,239.2.3.1,6969,MCAS-1-AI2C2,m-f,s,7-r-c,2022-05-04T00:38:48Z,2022-05-03T14:38:48Z,2022-05-03T14:38:48Z,a-f-G-E-V,bae,2.0,0.5,181.130493,32.876919,0.5,-114.20617,MCAS-1-AI2C2,192.168.42.158:4242:tcp,true,0,0,10,60,0,0,0,0,0,60,100,mcas,180,0,0,r-e,100,99,0,MAVLink,_MAVLink_,16.8,11,96,rtsp://192.168.166.176:8900/live,,,,,,,,,,
UDP,10.60.11.11,41884,239.2.3.1,6969,MCAS-2-AI2C2,m-f,s,7-r-c,2022-05-04T00:38:48Z,2022-05-03T14:38:48Z,2022-05-03T14:38:48Z,a-f-G-E-V,grizB,2.0,0.5,181.434647,32.8783593,0.5,-114.206697,MCAS-2-AI2C2,192.168.42.158:4242:tcp,true,0,0,10,60,0,0,0,0,0,60,100,mcas,180,0,0,r-e,100,99,0,MAVLink,_MAVLink_,16.8,11,96,rtsp://192.168.166.176:8900/live,,,,,,,,,,
UDP,10.60.11.11,57346,239.2.3.1,6969,MCAS-2-AI2C,m-f,s,7-r-c,2022-05-04T00:38:48Z,2022-05-03T14:38:48Z,2022-05-03T14:38:48Z,a-f-G-E-V,grizA,2.0,0.5,183.640366,32.8798783,0.5,-114.20394,MCAS-2-AI2C,192.168.42.158:4242:tcp,true,0,0,10,60,0,0,0,0,0,60,100,mcas,180,0,0,r-e,100,99,0,MAVLink,_MAVLink_,16.8,11,96,rtsp://192.168.166.176:8900/live,,,,,,,,,,
UDP,10.60.11.11,49850,239.2.3.1,6969,MCAS-1-AI2C,m-f,s,7-r-c,2022-05-04T00:38:48Z,2022-05-03T14:38:48Z,2022-05-03T14:38:48Z,a-f-G-E-V,m5,2.0,0.5,182.082855,32.8806994,0.5,-114.210435,MCAS-1-AI2C,192.168.42.158:4242:tcp,true,0,0,10,60,0,0,0,0,0,60,100,mcas,180,0,0,r-e,100,99,0,MAVLink,_MAVLink_,16.8,11,96,rtsp://192.168.166.176:8900/live,,,,,,,,,,
UDP,10.60.11.11,41884,239.2.3.1,6969,MCAS-2-AI2C2,m-f,s,7-r-c,2022-05-04T00:38:48Z,2022-05-03T14:38:48Z,2022-05-03T14:38:48Z,a-f-G-E-V,grizB,2.0,0.5,181.457016,32.8783733,0.5,-114.206684,MCAS-2-AI2C2,192.168.42.158:4242:tcp,true,0,0,10,60,0,0,0,0,0,60,100,mcas,180,0,0,r-e,100,99,0,MAVLink,_MAVLink_,16.8,11,96,rtsp://192.168.166.176:8900/live,,,,,,,,,,
UDP,10.60.11.11,39399,239.2.3.1,6969,MCAS-1-AI2C2,m-f,s,7-r-c,2022-05-04T00:38:48Z,2022-05-03T14:38:48Z,2022-05-03T14:38:48Z,a-f-G-E-V,bae,2.0,0.5,181.075516,32.8769348,0.5,-114.206166,MCAS-1-AI2C2,192.168.42.158:4242:tcp,true,0,0,10,60,0,0,0,0,0,60,100,mcas,180,0,0,r-e,100,99,0,MAVLink,_MAVLink_,16.8,11,96,rtsp://192.168.166.176:8900/live,,,,,,,,,,
UDP,10.60.11.11,57346,239.2.3.1,6969,MCAS-2-AI2C,m-f,s,7-r-c,2022-05-04T00:38:48Z,2022-05-03T14:38:48Z,2022-05-03T14:38:48Z,a-f-G-E-V,grizA,2.0,0.5,183.685196,32.8798658,0.5,-114.203927,MCAS-2-AI2C,192.168.42.158:4242:tcp,true,0,0,10,60,0,0,0,0,0,60,100,mcas,180,0,0,r-e,100,99,0,MAVLink,_MAVLink_,16.8,11,96,rtsp://192.168.166.176:8900/live,,,,,,,,,,
UDP,10.60.11.11,49850,239.2.3.1,6969,MCAS-1-AI2C,m-f,s,7-r-c,2022-05-04T00:38:48Z,2022-05-03T14:38:48Z,2022-05-03T14:38:48Z,a-f-G-E-V,m5,2.0,0.5,182.094681,32.8807122,0.5,-114.210424,MCAS-1-AI2C,192.168.42.158:4242:tcp,true,0,0,10,60,0,0,0,0,0,60,100,mcas,180,0,0,r-e,100,99,0,MAVLink,_MAVLink_,16.8,11,96,rtsp://192.168.166.176:8900/live,,,,,,,,,,
UDP,10.60.11.11,41884,239.2.3.1,6969,MCAS-2-AI2C2,m-f,s,7-r-c,2022-05-04T00:38:48Z,2022-05-03T14:38:48Z,2022-05-03T14:38:48Z,a-f-G-E-V,grizB,2.0,0.5,181.503662,32.8783885,0.5,-114.206671,MCAS-2-AI2C2,192.168.42.158:4242:tcp,true,0,0,10,60,0,0,0,0,0,60,100,mcas,180,0,0,r-e,100,99,0,MAVLink,_MAVLink_,16.8,11,96,rtsp://192.168.166.176:8900/live,,,,,,,,,,
UDP,10.60.11.11,39399,239.2.3.1,6969,MCAS-1-AI2C2,m-f,s,7-r-c,2022-05-04T00:38:48Z,2022-05-03T14:38:48Z,2022-05-03T14:38:48Z,a-f-G-E-V,bae,2.0,0.5,181.018646,32.8769507,0.5,-114.206161,MCAS-1-AI2C2,192.168.42.158:4242:tcp,true,0,0,10,60,0,0,0,0,0,60,100,mcas,180,0,0,r-e,100,99,0,MAVLink,_MAVLink_,16.8,11,96,rtsp://192.168.166.176:8900/live,,,,,,,,,,
UDP,10.60.11.11,57346,239.2.3.1,6969,MCAS-2-AI2C,m-f,s,7-r-c,2022-05-04T00:38:48Z,2022-05-03T14:38:48Z,2022-05-03T14:38:48Z,a-f-G-E-V,grizA,2.0,0.5,183.663696,32.8798505,0.5,-114.203913,MCAS-2-AI2C,192.168.42.158:4242:tcp,true,0,0,10,60,0,0,0,0,0,60,100,mcas,180,0,0,r-e,100,99,0,MAVLink,_MAVLink_,16.8,11,96,rtsp://192.168.166.176:8900/live,,,,,,,,,,
UDP,10.60.11.11,49850,239.2.3.1,6969,MCAS-1-AI2C,m-f,s,7-r-c,2022-05-04T00:38:48Z,2022-05-03T14:38:48Z,2022-05-03T14:38:48Z,a-f-G-E-V,m5,2.0,0.5,182.106567,32.8807254,0.5,-114.210414,MCAS-1-AI2C,192.168.42.158:4242:tcp,true,0,0,10,60,0,0,0,0,0,60,100,mcas,180,0,0,r-e,100,99,0,MAVLink,_MAVLink_,16.8,11,96,rtsp://192.168.166.176:8900/live,,,,,,,,,,
UDP,10.60.11.11,41884,239.2.3.1,6969,MCAS-2-AI2C2,m-f,s,7-r-c,2022-05-04T00:38:48Z,2022-05-03T14:38:48Z,2022-05-03T14:38:48Z,a-f-G-E-V,grizB,2.0,0.5,181.503006,32.8784035,0.5,-114.206659,MCAS-2-AI2C2,192.168.42.158:4242:tcp,true,0,0,10,60,0,0,0,0,0,60,100,mcas,180,0,0,r-e,100,99,0,MAVLink,_MAVLink_,16.8,11,96,rtsp://192.168.166.176:8900/live,,,,,,,,,,
UDP,10.60.11.11,39399,239.2.3.1,6969,MCAS-1-AI2C2,m-f,s,7-r-c,2022-05-04T00:38:48Z,2022-05-03T14:38:48Z,2022-05-03T14:38:48Z,a-f-G-E-V,bae,2.0,0.5,180.967041,32.8769664,0.5,-114.206154,MCAS-1-AI2C2,192.168.42.158:4242:tcp,true,0,0,10,60,0,0,0,0,0,60,100,mcas,180,0,0,r-e,100,99,0,MAVLink,_MAVLink_,16.8,11,96,rtsp://192.168.166.176:8900/live,,,,,,,,,,
UDP,10.60.11.11,57346,239.2.3.1,6969,MCAS-2-AI2C,m-f,s,7-r-c,2022-05-04T00:38:48Z,2022-05-03T14:38:48Z,2022-05-03T14:38:48Z,a-f-G-E-V,grizA,2.0,0.5,183.704498,32.8798363,0.5,-114.203898,MCAS-2-AI2C,192.168.42.158:4242:tcp,true,0,0,10,60,0,0,0,0,0,60,100,mcas,180,0,0,r-e,100,99,0,MAVLink,_MAVLink_,16.8,11,96,rtsp://192.168.166.176:8900/live,,,,,,,,,,
UDP,10.60.11.11,49850,239.2.3.1,6969,MCAS-1-AI2C,m-f,s,7-r-c,2022-05-04T00:38:48Z,2022-05-03T14:38:48Z,2022-05-03T14:38:48Z,a-f-G-E-V,m5,2.0,0.5,182.110275,32.88074,0.5,-114.210406,MCAS-1-AI2C,192.168.42.158:4242:tcp,true,0,0,10,60,0,0,0,0,0,60,100,mcas,180,0,0,r-e,100,99,0,MAVLink,_MAVLink_,16.8,11,96,rtsp://192.168.166.176:8900/live,,,,,,,,,,
UDP,10.60.11.11,41884,239.2.3.1,6969,MCAS-2-AI2C2,m-f,s,7-r-c,2022-05-04T00:38:48Z,2022-05-03T14:38:48Z,2022-05-03T14:38:48Z,a-f-G-E-V,grizB,2.0,0.5,181.526245,32.8784188,0.5,-114.206647,MCAS-2-AI2C2,192.168.42.158:4242:tcp,true,0,0,10,60,0,0,0,0,0,60,100,mcas,180,0,0,r-e,100,99,0,MAVLink,_MAVLink_,16.8,11,96,rtsp://192.168.166.176:8900/live,,,,,,,,,,
UDP,10.60.11.11,39399,239.2.3.1,6969,MCAS-1-AI2C2,m-f,s,7-r-c,2022-05-04T00:38:48Z,2022-05-03T14:38:48Z,2022-05-03T14:38:48Z,a-f-G-E-V,bae,2.0,0.5,180.931717,32.8769818,0.5,-114.206147,MCAS-1-AI2C2,192.168.42.158:4242:tcp,true,0,0,10,60,0,0,0,0,0,60,100,mcas,180,0,0,r-e,100,99,0,MAVLink,_MAVLink_,16.8,11,96,rtsp://192.168.166.176:8900/live,,,,,,,,,,
UDP,10.60.11.11,57346,239.2.3.1,6969,MCAS-2-AI2C,m-f,s,7-r-c,2022-05-04T00:38:48Z,2022-05-03T14:38:48Z,2022-05-03T14:38:48Z,a-f-G-E-V,grizA,2.0,0.5,183.634995,32.8798228,0.5,-114.203882,MCAS-2-AI2C,192.168.42.158:4242:tcp,true,0,0,10,60,0,0,0,0,0,60,100,mcas,180,0,0,r-e,100,99,0,MAVLink,_MAVLink_,16.8,11,96,rtsp://192.168.166.176:8900/live,,,,,,,,,,
UDP,10.60.11.11,49850,239.2.3.1,6969,MCAS-1-AI2C,m-f,s,7-r-c,2022-05-04T00:38:48Z,2022-05-03T14:38:48Z,2022-05-03T14:38:48Z,a-f-G-E-V,m5,2.0,0.5,182.121689,32.8807556,0.5,-114.2104,MCAS-1-AI2C,192.168.42.158:4242:tcp,true,0,0,10,60,0,0,0,0,0,60,100,mcas,180,0,0,r-e,100,99,0,MAVLink,_MAVLink_,16.8,11,96,rtsp://192.168.166.176:8900/live,,,,,,,,,,
UDP,10.60.11.11,41884,239.2.3.1,6969,MCAS-2-AI2C2,m-f,s,7-r-c,2022-05-04T00:38:48Z,2022-05-03T14:38:48Z,2022-05-03T14:38:48Z,a-f-G-E-V,grizB,2.0,0.5,181.552567,32.8784337,0.5,-114.206636,MCAS-2-AI2C2,192.168.42.158:4242:tcp,true,0,0,10,60,0,0,0,0,0,60,100,mcas,180,0,0,r-e,100,99,0,MAVLink,_MAVLink_,16.8,11,96,rtsp://192.168.166.176:8900/live,,,,,,,,,,
UDP,10.60.11.11,39399,239.2.3.1,6969,MCAS-1-AI2C2,m-f,s,7-r-c,2022-05-04T00:38:48Z,2022-05-03T14:38:48Z,2022-05-03T14:38:48Z,a-f-G-E-V,bae,2.0,0.5,180.91394,32.8769968,0.5,-114.206138,MCAS-1-AI2C2,192.168.42.158:4242:tcp,true,0,0,10,60,0,0,0,0,0,60,100,mcas,180,0,0,r-e,100,99,0,MAVLink,_MAVLink_,16.8,11,96,rtsp://192.168.166.176:8900/live,,,,,,,,,,
UDP,10.60.11.11,57346,239.2.3.1,6969,MCAS-2-AI2C,m-f,s,7-r-c,2022-05-04T00:38:48Z,2022-05-03T14:38:48Z,2022-05-03T14:38:48Z,a-f-G-E-V,grizA,2.0,0.5,183.512665,32.8798101,0.5,-114.203865,MCAS-2-AI2C,192.168.42.158:4242:tcp,true,0,0,10,60,0,0,0,0,0,60,100,mcas,180,0,0,r-e,100,99,0,MAVLink,_MAVLink_,16.8,11,96,rtsp://192.168.166.176:8900/live,,,,,,,,,,
UDP,10.60.11.11,49850,239.2.3.1,6969,MCAS-1-AI2C,m-f,s,7-r-c,2022-05-04T00:38:48Z,2022-05-03T14:38:48Z,2022-05-03T14:38:48Z,a-f-G-E-V,m5,2.0,0.5,182.14328,32.8807725,0.5,-114.210397,MCAS-1-AI2C,192.168.42.158:4242:tcp,true,0,0,10,60,0,0,0,0,0,60,100,mcas,180,0,0,r-e,100,99,0,MAVLink,_MAVLink_,16.8,11,96,rtsp://192.168.166.176:8900/live,,,,,,,,,,
UDP,10.60.11.11,41884,239.2.3.1,6969,MCAS-2-AI2C2,m-f,s,7-r-c,2022-05-04T00:38:48Z,2022-05-03T14:38:48Z,2022-05-03T14:38:48Z,a-f-G-E-V,grizB,2.0,0.5,181.573593,32.8784487,0.5,-114.206626,MCAS-2-AI2C2,192.168.42.158:4242:tcp,true,0,0,10,60,0,0,0,0,0,60,100,mcas,180,0,0,r-e,100,99,0,MAVLink,_MAVLink_,16.8,11,96,rtsp://192.168.166.176:8900/live,,,,,,,,,,
UDP,10.60.11.11,39399,239.2.3.1,6969,MCAS-1-AI2C2,m-f,s,7-r-c,2022-05-04T00:38:48Z,2022-05-03T14:38:48Z,2022-05-03T14:38:48Z,a-f-G-E-V,bae,2.0,0.5,180.887161,32.8770124,0.5,-114.206128,MCAS-1-AI2C2,192.168.42.158:4242:tcp,true,0,0,10,60,0,0,0,0,0,60,100,mcas,180,0,0,r-e,100,99,0,MAVLink,_MAVLink_,16.8,11,96,rtsp://192.168.166.176:8900/live,,,,,,,,,,
UDP,10.60.11.11,57346,239.2.3.1,6969,MCAS-2-AI2C,m-f,s,7-r-c,2022-05-04T00:38:48Z,2022-05-03T14:38:48Z,2022-05-03T14:38:48Z,a-f-G-E-V,grizA,2.0,0.5,183.594788,32.8798009,0.5,-114.203852,MCAS-2-AI2C,192.168.42.158:4242:tcp,true,0,0,10,60,0,0,0,0,0,60,100,mcas,180,0,0,r-e,100,99,0,MAVLink,_MAVLink_,16.8,11,96,rtsp://192.168.166.176:8900/live,,,,,,,,,,
UDP,10.60.11.11,49850,239.2.3.1,6969,MCAS-1-AI2C,m-f,s,7-r-c,2022-05-04T00:38:48Z,2022-05-03T14:38:48Z,2022-05-03T14:38:48Z,a-f-G-E-V,m5,2.0,0.5,182.161331,32.8807884,0.5,-114.210396,MCAS-1-AI2C,192.168.42.158:4242:tcp,true,0,0,10,60,0,0,0,0,0,60,100,mcas,180,0,0,r-e,100,99,0,MAVLink,_MAVLink_,16.8,11,96,rtsp://192.168.166.176:8900/live,,,,,,,,,,
UDP,10.60.11.11,41884,239.2.3.1,6969,MCAS-2-AI2C2,m-f,s,7-r-c,2022-05-04T00:38:48Z,2022-05-03T14:38:48Z,2022-05-03T14:38:48Z,a-f-G-E-V,grizB,2.0,0.5,181.580917,32.8784647,0.5,-114.206615,MCAS-2-AI2C2,192.168.42.158:4242:tcp,true,0,0,10,60,0,0,0,0,0,60,100,mcas,180,0,0,r-e,100,99,0,MAVLink,_MAVLink_,16.8,11,96,rtsp://192.168.166.176:8900/live,,,,,,,,,,
UDP,10.60.11.11,39399,239.2.3.1,6969,MCAS-1-AI2C2,m-f,s,7-r-c,2022-05-04T00:38:48Z,2022-05-03T14:38:48Z,2022-05-03T14:38:48Z,a-f-G-E-V,bae,2.0,0.5,180.860443,32.877028,0.5,-114.206118,MCAS-1-AI2C2,192.168.42.158:4242:tcp,true,0,0,10,60,0,0,0,0,0,60,100,mcas,180,0,0,r-e,100,99,0,MAVLink,_MAVLink_,16.8,11,96,rtsp://192.168.166.176:8900/live,,,,,,,,,,
UDP,10.60.11.11,57346,239.2.3.1,6969,MCAS-2-AI2C,m-f,s,7-r-c,2022-05-04T00:38:48Z,2022-05-03T14:38:48Z,2022-05-03T14:38:48Z,a-f-G-E-V,grizA,2.0,0.5,183.63681,32.8797944,0.5,-114.203841,MCAS-2-AI2C,192.168.42.158:4242:tcp,true,0,0,10,60,0,0,0,0,0,60,100,mcas,180,0,0,r-e,100,99,0,MAVLink,_MAVLink_,16.8,11,96,rtsp://192.168.166.176:8900/live,,,,,,,,,,
UDP,10.60.11.11,49850,239.2.3.1,6969,MCAS-1-AI2C,m-f,s,7-r-c,2022-05-04T00:38:48Z,2022-05-03T14:38:48Z,2022-05-03T14:38:48Z,a-f-G-E-V,m5,2.0,0.5,182.169907,32.880805,0.5,-114.210397,MCAS-1-AI2C,192.168.42.158:4242:tcp,true,0,0,10,60,0,0,0,0,0,60,100,mcas,180,0,0,r-e,100,99,0,MAVLink,_MAVLink_,16.8,11,96,rtsp://192.168.166.176:8900/live,,,,,,,,,,
UDP,10.60.11.11,41884,239.2.3.1,6969,MCAS-2-AI2C2,m-f,s,7-r-c,2022-05-04T00:38:48Z,2022-05-03T14:38:48Z,2022-05-03T14:38:48Z,a-f-G-E-V,grizB,2.0,0.5,181.581696,32.8784809,0.5,-114.206605,MCAS-2-AI2C2,192.168.42.158:4242:tcp,true,0,0,10,60,0,0,0,0,0,60,100,mcas,180,0,0,r-e,100,99,0,MAVLink,_MAVLink_,16.8,11,96,rtsp://192.168.166.176:8900/live,,,,,,,,,,
UDP,10.60.11.11,39399,239.2.3.1,6969,MCAS-1-AI2C2,m-f,s,7-r-c,2022-05-04T00:38:48Z,2022-05-03T14:38:48Z,2022-05-03T14:38:48Z,a-f-G-E-V,bae,2.0,0.5,180.851562,32.8770437,0.5,-114.206106,MCAS-1-AI2C2,192.168.42.158:4242:tcp,true,0,0,10,60,0,0,0,0,0,60,100,mcas,180,0,0,r-e,100,99,0,MAVLink,_MAVLink_,16.8,11,96,rtsp://192.168.166.176:8900/live,,,,,,,,,,
UDP,10.60.11.11,57346,239.2.3.1,6969,MCAS-2-AI2C,m-f,s,7-r-c,2022-05-04T00:38:48Z,2022-05-03T14:38:48Z,2022-05-03T14:38:48Z,a-f-G-E-V,grizA,2.0,0.5,183.734161,32.8797833,0.5,-114.203829,MCAS-2-AI2C,192.168.42.158:4242:tcp,true,0,0,10,60,0,0,0,0,0,60,100,mcas,180,0,0,r-e,100,99,0,MAVLink,_MAVLink_,16.8,11,96,rtsp://192.168.166.176:8900/live,,,,,,,,,,
UDP,10.60.11.11,49850,239.2.3.1,6969,MCAS-1-AI2C,m-f,s,7-r-c,2022-05-04T00:38:48Z,2022-05-03T14:38:48Z,2022-05-03T14:38:48Z,a-f-G-E-V,m5,2.0,0.5,182.164185,32.8808228,0.5,-114.210401,MCAS-1-AI2C,192.168.42.158:4242:tcp,true,0,0,10,60,0,0,0,0,0,60,100,mcas,180,0,0,r-e,100,99,0,MAVLink,_MAVLink_,16.8,11,96,rtsp://192.168.166.176:8900/live,,,,,,,,,,
UDP,10.60.11.11,39399,239.2.3.1,6969,MCAS-1-AI2C2,m-f,s,7-r-c,2022-05-04T00:38:48Z,2022-05-03T14:38:48Z,2022-05-03T14:38:48Z,a-f-G-E-V,bae,2.0,0.5,180.828201,32.8770592,0.5,-114.206095,MCAS-1-AI2C2,192.168.42.158:4242:tcp,true,0,0,10,60,0,0,0,0,0,60,100,mcas,180,0,0,r-e,100,99,0,MAVLink,_MAVLink_,16.8,11,96,rtsp://192.168.166.176:8900/live,,,,,,,,,,
UDP,10.60.11.11,41884,239.2.3.1,6969,MCAS-2-AI2C2,m-f,s,7-r-c,2022-05-04T00:38:48Z,2022-05-03T14:38:48Z,2022-05-03T14:38:48Z,a-f-G-E-V,grizB,2.0,0.5,181.604996,32.8784966,0.5,-114.206596,MCAS-2-AI2C2,192.168.42.158:4242:tcp,true,0,0,10,60,0,0,0,0,0,60,100,mcas,180,0,0,r-e,100,99,0,MAVLink,_MAVLink_,16.8,11,96,rtsp://192.168.166.176:8900/live,,,,,,,,,,
UDP,10.60.11.11,57346,239.2.3.1,6969,MCAS-2-AI2C,m-f,s,7-r-c,2022-05-04T00:38:48Z,2022-05-03T14:38:48Z,2022-05-03T14:38:48Z,a-f-G-E-V,grizA,2.0,0.5,183.806427,32.8797687,0.5,-114.203809,MCAS-2-AI2C,192.168.42.158:4242:tcp,true,0,0,10,60,0,0,0,0,0,60,100,mcas,180,0,0,r-e,100,99,0,MAVLink,_MAVLink_,16.8,11,96,rtsp://192.168.166.176:8900/live,,,,,,,,,,
UDP,10.60.11.11,49850,239.2.3.1,6969,MCAS-1-AI2C,m-f,s,7-r-c,2022-05-04T00:38:48Z,2022-05-03T14:38:48Z,2022-05-03T14:38:48Z,a-f-G-E-V,m5,2.0,0.5,182.148849,32.8808406,0.5,-114.210408,MCAS-1-AI2C,192.168.42.158:4242:tcp,true,0,0,10,60,0,0,0,0,0,60,100,mcas,180,0,0,r-e,100,99,0,MAVLink,_MAVLink_,16.8,11,96,rtsp://192.168.166.176:8900/live,,,,,,,,,,
UDP,10.60.11.11,39399,239.2.3.1,6969,MCAS-1-AI2C2,m-f,s,7-r-c,2022-05-04T00:38:48Z,2022-05-03T14:38:48Z,2022-05-03T14:38:48Z,a-f-G-E-V,bae,2.0,0.5,180.810257,32.8770748,0.5,-114.206083,MCAS-1-AI2C2,192.168.42.158:4242:tcp,true,0,0,10,60,0,0,0,0,0,60,100,mcas,180,0,0,r-e,100,99,0,MAVLink,_MAVLink_,16.8,11,96,rtsp://192.168.166.176:8900/live,,,,,,,,,,
UDP,10.60.11.11,41884,239.2.3.1,6969,MCAS-2-AI2C2,m-f,s,7-r-c,2022-05-04T00:38:48Z,2022-05-03T14:38:48Z,2022-05-03T14:38:48Z,a-f-G-E-V,grizB,2.0,0.5,181.603729,32.8785127,0.5,-114.206587,MCAS-2-AI2C2,192.168.42.158:4242:tcp,true,0,0,10,60,0,0,0,0,0,60,100,mcas,180,0,0,r-e,100,99,0,MAVLink,_MAVLink_,16.8,11,96,rtsp://192.168.166.176:8900/live,,,,,,,,,,
UDP,10.60.11.11,57346,239.2.3.1,6969,MCAS-2-AI2C,m-f,s,7-r-c,2022-05-04T00:38:48Z,2022-05-03T14:38:48Z,2022-05-03T14:38:48Z,a-f-G-E-V,grizA,2.0,0.5,183.854691,32.8797524,0.5,-114.203789,MCAS-2-AI2C,192.168.42.158:4242:tcp,true,0,0,10,60,0,0,0,0,0,60,100,mcas,180,0,0,r-e,100,99,0,MAVLink,_MAVLink_,16.8,11,96,rtsp://192.168.166.176:8900/live,,,,,,,,,,
UDP,10.60.11.11,49850,239.2.3.1,6969,MCAS-1-AI2C,m-f,s,7-r-c,2022-05-04T00:38:48Z,2022-05-03T14:38:48Z,2022-05-03T14:38:48Z,a-f-G-E-V,m5,2.0,0.5,182.113708,32.8808557,0.5,-114.210415,MCAS-1-AI2C,192.168.42.158:4242:tcp,true,0,0,10,60,0,0,0,0,0,60,100,mcas,180,0,0,r-e,100,99,0,MAVLink,_MAVLink_,16.8,11,96,rtsp://192.168.166.176:8900/live,,,,,,,,,,
UDP,10.60.11.11,39399,239.2.3.1,6969,MCAS-1-AI2C2,m-f,s,7-r-c,2022-05-04T00:38:48Z,2022-05-03T14:38:48Z,2022-05-03T14:38:48Z,a-f-G-E-V,bae,2.0,0.5,180.781128,32.8770908,0.5,-114.20607,MCAS-1-AI2C2,192.168.42.158:4242:tcp,true,0,0,10,60,0,0,0,0,0,60,100,mcas,180,0,0,r-e,100,99,0,MAVLink,_MAVLink_,16.8,11,96,rtsp://192.168.166.176:8900/live,,,,,,,,,,
UDP,10.60.11.11,41884,239.2.3.1,6969,MCAS-2-AI2C2,m-f,s,7-r-c,2022-05-04T00:38:48Z,2022-05-03T14:38:48Z,2022-05-03T14:38:48Z,a-f-G-E-V,grizB,2.0,0.5,181.638794,32.8785292,0.5,-114.206577,MCAS-2-AI2C2,192.168.42.158:4242:tcp,true,0,0,10,60,0,0,0,0,0,60,100,mcas,180,0,0,r-e,100,99,0,MAVLink,_MAVLink_,16.8,11,96,rtsp://192.168.166.176:8900/live,,,,,,,,,,
UDP,10.60.11.11,57346,239.2.3.1,6969,MCAS-2-AI2C,m-f,s,7-r-c,2022-05-04T00:38:48Z,2022-05-03T14:38:48Z,2022-05-03T14:38:48Z,a-f-G-E-V,grizA,2.0,0.5,183.871429,32.8797394,0.5,-114.203772,MCAS-2-AI2C,192.168.42.158:4242:tcp,true,0,0,10,60,0,0,0,0,0,60,100,mcas,180,0,0,r-e,100,99,0,MAVLink,_MAVLink_,16.8,11,96,rtsp://192.168.166.176:8900/live,,,,,,,,,,
UDP,10.60.11.11,49850,239.2.3.1,6969,MCAS-1-AI2C,m-f,s,7-r-c,2022-05-04T00:38:48Z,2022-05-03T14:38:48Z,2022-05-03T14:38:48Z,a-f-G-E-V,m5,2.0,0.5,182.080627,32.8808704,0.5,-114.210424,MCAS-1-AI2C,192.168.42.158:4242:tcp,true,0,0,10,60,0,0,0,0,0,60,100,mcas,180,0,0,r-e,100,99,0,MAVLink,_MAVLink_,16.8,11,96,rtsp://192.168.166.176:8900/live,,,,,,,,,,
UDP,10.60.11.11,41884,239.2.3.1,6969,MCAS-2-AI2C2,m-f,s,7-r-c,2022-05-04T00:38:48Z,2022-05-03T14:38:48Z,2022-05-03T14:38:48Z,a-f-G-E-V,grizB,2.0,0.5,181.664032,32.8785458,0.5,-114.206568,MCAS-2-AI2C2,192.168.42.158:4242:tcp,true,0,0,10,60,0,0,0,0,0,60,100,mcas,180,0,0,r-e,100,99,0,MAVLink,_MAVLink_,16.8,11,96,rtsp://192.168.166.176:8900/live,,,,,,,,,,
UDP,10.60.11.11,39399,239.2.3.1,6969,MCAS-1-AI2C2,m-f,s,7-r-c,2022-05-04T00:38:48Z,2022-05-03T14:38:48Z,2022-05-03T14:38:48Z,a-f-G-E-V,bae,2.0,0.5,180.776001,32.8771062,0.5,-114.206058,MCAS-1-AI2C2,192.168.42.158:4242:tcp,true,0,0,10,60,0,0,0,0,0,60,100,mcas,180,0,0,r-e,100,99,0,MAVLink,_MAVLink_,16.8,11,96,rtsp://192.168.166.176:8900/live,,,,,,,,,,
UDP,10.60.11.11,49850,239.2.3.1,6969,MCAS-1-AI2C,m-f,s,7-r-c,2022-05-04T00:38:48Z,2022-05-03T14:38:48Z,2022-05-03T14:38:48Z,a-f-G-E-V,m5,2.0,0.5,182.088745,32.8808841,0.5,-114.210435,MCAS-1-AI2C,192.168.42.158:4242:tcp,true,0,0,10,60,0,0,0,0,0,60,100,mcas,180,0,0,r-e,100,99,0,MAVLink,_MAVLink_,16.8,11,96,rtsp://192.168.166.176:8900/live,,,,,,,,,,
UDP,10.60.11.11,57346,239.2.3.1,6969,MCAS-2-AI2C,m-f,s,7-r-c,2022-05-04T00:38:48Z,2022-05-03T14:38:48Z,2022-05-03T14:38:48Z,a-f-G-E-V,grizA,2.0,0.5,183.843704,32.8797284,0.5,-114.203756,MCAS-2-AI2C,192.168.42.158:4242:tcp,true,0,0,10,60,0,0,0,0,0,60,100,mcas,180,0,0,r-e,100,99,0,MAVLink,_MAVLink_,16.8,11,96,rtsp://192.168.166.176:8900/live,,,,,,,,,,
UDP,10.60.11.11,41884,239.2.3.1,6969,MCAS-2-AI2C2,m-f,s,7-r-c,2022-05-04T00:38:48Z,2022-05-03T14:38:48Z,2022-05-03T14:38:48Z,a-f-G-E-V,grizB,2.0,0.5,181.667862,32.8785619,0.5,-114.206559,MCAS-2-AI2C2,192.168.42.158:4242:tcp,true,0,0,10,60,0,0,0,0,0,60,100,mcas,180,0,0,r-e,100,99,0,MAVLink,_MAVLink_,16.8,11,96,rtsp://192.168.166.176:8900/live,,,,,,,,,,
UDP,10.60.11.11,39399,239.2.3.1,6969,MCAS-1-AI2C2,m-f,s,7-r-c,2022-05-04T00:38:48Z,2022-05-03T14:38:48Z,2022-05-03T14:38:48Z,a-f-G-E-V,bae,2.0,0.5,180.763138,32.8771214,0.5,-114.206047,MCAS-1-AI2C2,192.168.42.158:4242:tcp,true,0,0,10,60,0,0,0,0,0,60,100,mcas,180,0,0,r-e,100,99,0,MAVLink,_MAVLink_,16.8,11,96,rtsp://192.168.166.176:8900/live,,,,,,,,,,
UDP,10.60.11.11,49850,239.2.3.1,6969,MCAS-1-AI2C,m-f,s,7-r-c,2022-05-04T00:38:48Z,2022-05-03T14:38:48Z,2022-05-03T14:38:48Z,a-f-G-E-V,m5,2.0,0.5,182.104095,32.8808958,0.5,-114.210447,MCAS-1-AI2C,192.168.42.158:4242:tcp,true,0,0,10,60,0,0,0,0,0,60,100,mcas,180,0,0,r-e,100,99,0,MAVLink,_MAVLink_,16.8,11,96,rtsp://192.168.166.176:8900/live,,,,,,,,,,
UDP,10.60.11.11,57346,239.2.3.1,6969,MCAS-2-AI2C,m-f,s,7-r-c,2022-05-04T00:38:48Z,2022-05-03T14:38:48Z,2022-05-03T14:38:48Z,a-f-G-E-V,grizA,2.0,0.5,183.839523,32.8797171,0.5,-114.203738,MCAS-2-AI2C,192.168.42.158:4242:tcp,true,0,0,10,60,0,0,0,0,0,60,100,mcas,180,0,0,r-e,100,99,0,MAVLink,_MAVLink_,16.8,11,96,rtsp://192.168.166.176:8900/live,,,,,,,,,,
UDP,10.60.11.11,41884,239.2.3.1,6969,MCAS-2-AI2C2,m-f,s,7-r-c,2022-05-04T00:38:48Z,2022-05-03T14:38:48Z,2022-05-03T14:38:48Z,a-f-G-E-V,grizB,2.0,0.5,181.694992,32.8785783,0.5,-114.206549,MCAS-2-AI2C2,192.168.42.158:4242:tcp,true,0,0,10,60,0,0,0,0,0,60,100,mcas,180,0,0,r-e,100,99,0,MAVLink,_MAVLink_,16.8,11,96,rtsp://192.168.166.176:8900/live,,,,,,,,,,
UDP,10.60.11.11,39399,239.2.3.1,6969,MCAS-1-AI2C2,m-f,s,7-r-c,2022-05-04T00:38:48Z,2022-05-03T14:38:48Z,2022-05-03T14:38:48Z,a-f-G-E-V,bae,2.0,0.5,180.748917,32.8771372,0.5,-114.206034,MCAS-1-AI2C2,192.168.42.158:4242:tcp,true,0,0,10,60,0,0,0,0,0,60,100,mcas,180,0,0,r-e,100,99,0,MAVLink,_MAVLink_,16.8,11,96,rtsp://192.168.166.176:8900/live,,,,,,,,,,
UDP,10.60.11.11,49850,239.2.3.1,6969,MCAS-1-AI2C,m-f,s,7-r-c,2022-05-04T00:38:48Z,2022-05-03T14:38:48Z,2022-05-03T14:38:48Z,a-f-G-E-V,m5,2.0,0.5,182.128601,32.8809067,0.5,-114.210461,MCAS-1-AI2C,192.168.42.158:4242:tcp,true,0,0,10,60,0,0,0,0,0,60,100,mcas,180,0,0,r-e,100,99,0,MAVLink,_MAVLink_,16.8,11,96,rtsp://192.168.166.176:8900/live,,,,,,,,,,
UDP,10.60.11.11,57346,239.2.3.1,6969,MCAS-2-AI2C,m-f,s,7-r-c,2022-05-04T00:38:48Z,2022-05-03T14:38:48Z,2022-05-03T14:38:48Z,a-f-G-E-V,grizA,2.0,0.5,183.846741,32.8797062,0.5,-114.203721,MCAS-2-AI2C,192.168.42.158:4242:tcp,true,0,0,10,60,0,0,0,0,0,60,100,mcas,180,0,0,r-e,100,99,0,MAVLink,_MAVLink_,16.8,11,96,rtsp://192.168.166.176:8900/live,,,,,,,,,,
UDP,10.60.11.11,41884,239.2.3.1,6969,MCAS-2-AI2C2,m-f,s,7-r-c,2022-05-04T00:38:48Z,2022-05-03T14:38:48Z,2022-05-03T14:38:48Z,a-f-G-E-V,grizB,2.0,0.5,181.704391,32.8785948,0.5,-114.20654,MCAS-2-AI2C2,192.168.42.158:4242:tcp,true,0,0,10,60,0,0,0,0,0,60,100,mcas,180,0,0,r-e,100,99,0,MAVLink,_MAVLink_,16.8,11,96,rtsp://192.168.166.176:8900/live,,,,,,,,,,
UDP,10.60.11.11,39399,239.2.3.1,6969,MCAS-1-AI2C2,m-f,s,7-r-c,2022-05-04T00:38:48Z,2022-05-03T14:38:48Z,2022-05-03T14:38:48Z,a-f-G-E-V,bae,2.0,0.5,180.719147,32.8771526,0.5,-114.206022,MCAS-1-AI2C2,192.168.42.158:4242:tcp,true,0,0,10,60,0,0,0,0,0,60,100,mcas,180,0,0,r-e,100,99,0,MAVLink,_MAVLink_,16.8,11,96,rtsp://192.168.166.176:8900/live,,,,,,,,,,
UDP,10.60.11.11,49850,239.2.3.1,6969,MCAS-1-AI2C,m-f,s,7-r-c,2022-05-04T00:38:48Z,2022-05-03T14:38:48Z,2022-05-03T14:38:48Z,a-f-G-E-V,m5,2.0,0.5,182.162323,32.8809168,0.5,-114.210477,MCAS-1-AI2C,192.168.42.158:4242:tcp,true,0,0,10,60,0,0,0,0,0,60,100,mcas,180,0,0,r-e,100,99,0,MAVLink,_MAVLink_,16.8,11,96,rtsp://192.168.166.176:8900/live,,,,,,,,,,
UDP,10.60.11.11,57346,239.2.3.1,6969,MCAS-2-AI2C,m-f,s,7-r-c,2022-05-04T00:38:48Z,2022-05-03T14:38:48Z,2022-05-03T14:38:48Z,a-f-G-E-V,grizA,2.0,0.5,183.829865,32.8796959,0.5,-114.203704,MCAS-2-AI2C,192.168.42.158:4242:tcp,true,0,0,10,60,0,0,0,0,0,60,100,mcas,180,0,0,r-e,100,99,0,MAVLink,_MAVLink_,16.8,11,96,rtsp://192.168.166.176:8900/live,,,,,,,,,,
UDP,10.60.11.11,41884,239.2.3.1,6969,MCAS-2-AI2C2,m-f,s,7-r-c,2022-05-04T00:38:48Z,2022-05-03T14:38:48Z,2022-05-03T14:38:48Z,a-f-G-E-V,grizB,2.0,0.5,181.703339,32.8786106,0.5,-114.20653,MCAS-2-AI2C2,192.168.42.158:4242:tcp,true,0,0,10,60,0,0,0,0,0,60,100,mcas,180,0,0,r-e,100,99,0,MAVLink,_MAVLink_,16.8,11,96,rtsp://192.168.166.176:8900/live,,,,,,,,,,
UDP,10.60.11.11,39399,239.2.3.1,6969,MCAS-1-AI2C2,m-f,s,7-r-c,2022-05-04T00:38:48Z,2022-05-03T14:38:48Z,2022-05-03T14:38:48Z,a-f-G-E-V,bae,2.0,0.5,180.696442,32.8771677,0.5,-114.20601,MCAS-1-AI2C2,192.168.42.158:4242:tcp,true,0,0,10,60,0,0,0,0,0,60,100,mcas,180,0,0,r-e,100,99,0,MAVLink,_MAVLink_,16.8,11,96,rtsp://192.168.166.176:8900/live,,,,,,,,,,
UDP,10.60.11.11,49850,239.2.3.1,6969,MCAS-1-AI2C,m-f,s,7-r-c,2022-05-04T00:38:48Z,2022-05-03T14:38:48Z,2022-05-03T14:38:48Z,a-f-G-E-V,m5,2.0,0.5,182.176178,32.8809257,0.5,-114.210496,MCAS-1-AI2C,192.168.42.158:4242:tcp,true,0,0,10,60,0,0,0,0,0,60,100,mcas,180,0,0,r-e,100,99,0,MAVLink,_MAVLink_,16.8,11,96,rtsp://192.168.166.176:8900/live,,,,,,,,,,
UDP,10.60.11.11,57346,239.2.3.1,6969,MCAS-2-AI2C,m-f,s,7-r-c,2022-05-04T00:38:48Z,2022-05-03T14:38:48Z,2022-05-03T14:38:48Z,a-f-G-E-V,grizA,2.0,0.5,183.836411,32.8796863,0.5,-114.203687,MCAS-2-AI2C,192.168.42.158:4242:tcp,true,0,0,10,60,0,0,0,0,0,60,100,mcas,180,0,0,r-e,100,99,0,MAVLink,_MAVLink_,16.8,11,96,rtsp://192.168.166.176:8900/live,,,,,,,,,,
UDP,10.60.11.11,39399,239.2.3.1,6969,MCAS-1-AI2C2,m-f,s,7-r-c,2022-05-04T00:38:48Z,2022-05-03T14:38:48Z,2022-05-03T14:38:48Z,a-f-G-E-V,bae,2.0,0.5,180.695831,32.8771829,0.5,-114.205999,MCAS-1-AI2C2,192.168.42.158:4242:tcp,true,0,0,10,60,0,0,0,0,0,60,100,mcas,180,0,0,r-e,100,99,0,MAVLink,_MAVLink_,16.8,11,96,rtsp://192.168.166.176:8900/live,,,,,,,,,,
UDP,10.60.11.11,41884,239.2.3.1,6969,MCAS-2-AI2C2,m-f,s,7-r-c,2022-05-04T00:38:48Z,2022-05-03T14:38:48Z,2022-05-03T14:38:48Z,a-f-G-E-V,grizB,2.0,0.5,181.710663,32.8786268,0.5,-114.206519,MCAS-2-AI2C2,192.168.42.158:4242:tcp,true,0,0,10,60,0,0,0,0,0,60,100,mcas,180,0,0,r-e,100,99,0,MAVLink,_MAVLink_,16.8,11,96,rtsp://192.168.166.176:8900/live,,,,,,,,,,
UDP,10.60.11.11,49850,239.2.3.1,6969,MCAS-1-AI2C,m-f,s,7-r-c,2022-05-04T00:38:48Z,2022-05-03T14:38:48Z,2022-05-03T14:38:48Z,a-f-G-E-V,m5,2.0,0.5,182.15593,32.8809327,0.5,-114.210517,MCAS-1-AI2C,192.168.42.158:4242:tcp,true,0,0,10,60,0,0,0,0,0,60,100,mcas,180,0,0,r-e,100,99,0,MAVLink,_MAVLink_,16.8,11,96,rtsp://192.168.166.176:8900/live,,,,,,,,,,
UDP,10.60.11.11,57346,239.2.3.1,6969,MCAS-2-AI2C,m-f,s,7-r-c,2022-05-04T00:38:48Z,2022-05-03T14:38:48Z,2022-05-03T14:38:48Z,a-f-G-E-V,grizA,2.0,0.5,183.858566,32.8796773,0.5,-114.203669,MCAS-2-AI2C,192.168.42.158:4242:tcp,true,0,0,10,60,0,0,0,0,0,60,100,mcas,180,0,0,r-e,100,99,0,MAVLink,_MAVLink_,16.8,11,96,rtsp://192.168.166.176:8900/live,,,,,,,,,,
UDP,10.60.11.11,39399,239.2.3.1,6969,MCAS-1-AI2C2,m-f,s,7-r-c,2022-05-04T00:38:48Z,2022-05-03T14:38:48Z,2022-05-03T14:38:48Z,a-f-G-E-V,bae,2.0,0.5,180.699524,32.8771979,0.5,-114.205987,MCAS-1-AI2C2,192.168.42.158:4242:tcp,true,0,0,10,60,0,0,0,0,0,60,100,mcas,180,0,0,r-e,100,99,0,MAVLink,_MAVLink_,16.8,11,96,rtsp://192.168.166.176:8900/live,,,,,,,,,,
UDP,10.60.11.11,41884,239.2.3.1,6969,MCAS-2-AI2C2,m-f,s,7-r-c,2022-05-04T00:38:48Z,2022-05-03T14:38:48Z,2022-05-03T14:38:48Z,a-f-G-E-V,grizB,2.0,0.5,181.715683,32.8786424,0.5,-114.206509,MCAS-2-AI2C2,192.168.42.158:4242:tcp,true,0,0,10,60,0,0,0,0,0,60,100,mcas,180,0,0,r-e,100,99,0,MAVLink,_MAVLink_,16.8,11,96,rtsp://192.168.166.176:8900/live,,,,,,,,,,
UDP,10.60.11.11,57346,239.2.3.1,6969,MCAS-2-AI2C,m-f,s,7-r-c,2022-05-04T00:38:48Z,2022-05-03T14:38:48Z,2022-05-03T14:38:48Z,a-f-G-E-V,grizA,2.0,0.5,183.929642,32.8796678,0.5,-114.203651,MCAS-2-AI2C,192.168.42.158:4242:tcp,true,0,0,10,60,0,0,0,0,0,60,100,mcas,180,0,0,r-e,100,99,0,MAVLink,_MAVLink_,16.8,11,96,rtsp://192.168.166.176:8900/live,,,,,,,,,,
UDP,10.60.11.11,49850,239.2.3.1,6969,MCAS-1-AI2C,m-f,s,7-r-c,2022-05-04T00:38:48Z,2022-05-03T14:38:48Z,2022-05-03T14:38:48Z,a-f-G-E-V,m5,2.0,0.5,182.146851,32.8809382,0.5,-114.210538,MCAS-1-AI2C,192.168.42.158:4242:tcp,true,0,0,10,60,0,0,0,0,0,60,100,mcas,180,0,0,r-e,100,99,0,MAVLink,_MAVLink_,16.8,11,96,rtsp://192.168.166.176:8900/live,,,,,,,,,,
UDP,10.60.11.11,39399,239.2.3.1,6969,MCAS-1-AI2C2,m-f,s,7-r-c,2022-05-04T00:38:48Z,2022-05-03T14:38:48Z,2022-05-03T14:38:48Z,a-f-G-E-V,bae,2.0,0.5,180.700027,32.8772126,0.5,-114.205975,MCAS-1-AI2C2,192.168.42.158:4242:tcp,true,0,0,10,60,0,0,0,0,0,60,100,mcas,180,0,0,r-e,100,99,0,MAVLink,_MAVLink_,16.8,11,96,rtsp://192.168.166.176:8900/live,,,,,,,,,,
UDP,10.60.11.11,41884,239.2.3.1,6969,MCAS-2-AI2C2,m-f,s,7-r-c,2022-05-04T00:38:48Z,2022-05-03T14:38:48Z,2022-05-03T14:38:48Z,a-f-G-E-V,grizB,2.0,0.5,181.714706,32.8786583,0.5,-114.206498,MCAS-2-AI2C2,192.168.42.158:4242:tcp,true,0,0,10,60,0,0,0,0,0,60,100,mcas,180,0,0,r-e,100,99,0,MAVLink,_MAVLink_,16.8,11,96,rtsp://192.168.166.176:8900/live,,,,,,,,,,
UDP,10.60.11.11,49850,239.2.3.1,6969,MCAS-1-AI2C,m-f,s,7-r-c,2022-05-04T00:38:48Z,2022-05-03T14:38:48Z,2022-05-03T14:38:48Z,a-f-G-E-V,m5,2.0,0.5,182.15271,32.8809422,0.5,-114.210558,MCAS-1-AI2C,192.168.42.158:4242:tcp,true,0,0,10,60,0,0,0,0,0,60,100,mcas,180,0,0,r-e,100,99,0,MAVLink,_MAVLink_,16.8,11,96,rtsp://192.168.166.176:8900/live,,,,,,,,,,
UDP,10.60.11.11,57346,239.2.3.1,6969,MCAS-2-AI2C,m-f,s,7-r-c,2022-05-04T00:38:48Z,2022-05-03T14:38:48Z,2022-05-03T14:38:48Z,a-f-G-E-V,grizA,2.0,0.5,183.95993,32.8796593,0.5,-114.203632,MCAS-2-AI2C,192.168.42.158:4242:tcp,true,0,0,10,60,0,0,0,0,0,60,100,mcas,180,0,0,r-e,100,99,0,MAVLink,_MAVLink_,16.8,11,96,rtsp://192.168.166.176:8900/live,,,,,,,,,,
UDP,10.60.11.11,39399,239.2.3.1,6969,MCAS-1-AI2C2,m-f,s,7-r-c,2022-05-04T00:38:48Z,2022-05-03T14:38:48Z,2022-05-03T14:38:48Z,a-f-G-E-V,bae,2.0,0.5,180.69902,32.8772276,0.5,-114.205964,MCAS-1-AI2C2,192.168.42.158:4242:tcp,true,0,0,10,60,0,0,0,0,0,60,100,mcas,180,0,0,r-e,100,99,0,MAVLink,_MAVLink_,16.8,11,96,rtsp://192.168.166.176:8900/live,,,,,,,,,,
UDP,10.60.11.11,41884,239.2.3.1,6969,MCAS-2-AI2C2,m-f,s,7-r-c,2022-05-04T00:38:48Z,2022-05-03T14:38:48Z,2022-05-03T14:38:48Z,a-f-G-E-V,grizB,2.0,0.5,181.706238,32.8786733,0.5,-114.206487,MCAS-2-AI2C2,192.168.42.158:4242:tcp,true,0,0,10,60,0,0,0,0,0,60,100,mcas,180,0,0,r-e,100,99,0,MAVLink,_MAVLink_,16.8,11,96,rtsp://192.168.166.176:8900/live,,,,,,,,,,
UDP,10.60.11.11,57346,239.2.3.1,6969,MCAS-2-AI2C,m-f,s,7-r-c,2022-05-04T00:38:48Z,2022-05-03T14:38:48Z,2022-05-03T14:38:48Z,a-f-G-E-V,grizA,2.0,0.5,183.967728,32.8796502,0.5,-114.203612,MCAS-2-AI2C,192.168.42.158:4242:tcp,true,0,0,10,60,0,0,0,0,0,60,100,mcas,180,0,0,r-e,100,99,0,MAVLink,_MAVLink_,16.8,11,96,rtsp://192.168.166.176:8900/live,,,,,,,,,,
UDP,10.60.11.11,49850,239.2.3.1,6969,MCAS-1-AI2C,m-f,s,7-r-c,2022-05-04T00:38:48Z,2022-05-03T14:38:48Z,2022-05-03T14:38:48Z,a-f-G-E-V,m5,2.0,0.5,182.172852,32.8809453,0.5,-114.210578,MCAS-1-AI2C,192.168.42.158:4242:tcp,true,0,0,10,60,0,0,0,0,0,60,100,mcas,180,0,0,r-e,100,99,0,MAVLink,_MAVLink_,16.8,11,96,rtsp://192.168.166.176:8900/live,,,,,,,,,,
UDP,10.60.11.11,39399,239.2.3.1,6969,MCAS-1-AI2C2,m-f,s,7-r-c,2022-05-04T00:38:48Z,2022-05-03T14:38:48Z,2022-05-03T14:38:48Z,a-f-G-E-V,bae,2.0,0.5,180.660461,32.8772433,0.5,-114.205953,MCAS-1-AI2C2,192.168.42.158:4242:tcp,true,0,0,10,60,0,0,0,0,0,60,100,mcas,180,0,0,r-e,100,99,0,MAVLink,_MAVLink_,16.8,11,96,rtsp://192.168.166.176:8900/live,,,,,,,,,,
UDP,10.60.11.11,41884,239.2.3.1,6969,MCAS-2-AI2C2,m-f,s,7-r-c,2022-05-04T00:38:48Z,2022-05-03T14:38:48Z,2022-05-03T14:38:48Z,a-f-G-E-V,grizB,2.0,0.5,181.705734,32.8786879,0.5,-114.206476,MCAS-2-AI2C2,192.168.42.158:4242:tcp,true,0,0,10,60,0,0,0,0,0,60,100,mcas,180,0,0,r-e,100,99,0,MAVLink,_MAVLink_,16.8,11,96,rtsp://192.168.166.176:8900/live,,,,,,,,,,
UDP,10.60.11.11,57346,239.2.3.1,6969,MCAS-2-AI2C,m-f,s,7-r-c,2022-05-04T00:38:48Z,2022-05-03T14:38:48Z,2022-05-03T14:38:48Z,a-f-G-E-V,grizA,2.0,0.5,183.981796,32.8796414,0.5,-114.203594,MCAS-2-AI2C,192.168.42.158:4242:tcp,true,0,0,10,60,0,0,0,0,0,60,100,mcas,180,0,0,r-e,100,99,0,MAVLink,_MAVLink_,16.8,11,96,rtsp://192.168.166.176:8900/live,,,,,,,,,,
UDP,10.60.11.11,49850,239.2.3.1,6969,MCAS-1-AI2C,m-f,s,7-r-c,2022-05-04T00:38:48Z,2022-05-03T14:38:48Z,2022-05-03T14:38:48Z,a-f-G-E-V,m5,2.0,0.5,182.200943,32.8809479,0.5,-114.210601,MCAS-1-AI2C,192.168.42.158:4242:tcp,true,0,0,10,60,0,0,0,0,0,60,100,mcas,180,0,0,r-e,100,99,0,MAVLink,_MAVLink_,16.8,11,96,rtsp://192.168.166.176:8900/live,,,,,,,,,,
UDP,10.60.11.11,39399,239.2.3.1,6969,MCAS-1-AI2C2,m-f,s,7-r-c,2022-05-04T00:38:48Z,2022-05-03T14:38:48Z,2022-05-03T14:38:48Z,a-f-G-E-V,bae,2.0,0.5,180.653763,32.8772586,0.5,-114.205943,MCAS-1-AI2C2,192.168.42.158:4242:tcp,true,0,0,10,60,0,0,0,0,0,60,100,mcas,180,0,0,r-e,100,99,0,MAVLink,_MAVLink_,16.8,11,96,rtsp://192.168.166.176:8900/live,,,,,,,,,,
UDP,10.60.11.11,41884,239.2.3.1,6969,MCAS-2-AI2C2,m-f,s,7-r-c,2022-05-04T00:38:48Z,2022-05-03T14:38:48Z,2022-05-03T14:38:48Z,a-f-G-E-V,grizB,2.0,0.5,181.728912,32.8787023,0.5,-114.206464,MCAS-2-AI2C2,192.168.42.158:4242:tcp,true,0,0,10,60,0,0,0,0,0,60,100,mcas,180,0,0,r-e,100,99,0,MAVLink,_MAVLink_,16.8,11,96,rtsp://192.168.166.176:8900/live,,,,,,,,,,
UDP,10.60.11.11,57346,239.2.3.1,6969,MCAS-2-AI2C,m-f,s,7-r-c,2022-05-04T00:38:48Z,2022-05-03T14:38:48Z,2022-05-03T14:38:48Z,a-f-G-E-V,grizA,2.0,0.5,184.033783,32.8796329,0.5,-114.203576,MCAS-2-AI2C,192.168.42.158:4242:tcp,true,0,0,10,60,0,0,0,0,0,60,100,mcas,180,0,0,r-e,100,99,0,MAVLink,_MAVLink_,16.8,11,96,rtsp://192.168.166.176:8900/live,,,,,,,,,,
UDP,10.60.11.11,49850,239.2.3.1,6969,MCAS-1-AI2C,m-f,s,7-r-c,2022-05-04T00:38:48Z,2022-05-03T14:38:48Z,2022-05-03T14:38:48Z,a-f-G-E-V,m5,2.0,0.5,182.216125,32.8809496,0.5,-114.210624,MCAS-1-AI2C,192.168.42.158:4242:tcp,true,0,0,10,60,0,0,0,0,0,60,100,mcas,180,0,0,r-e,100,99,0,MAVLink,_MAVLink_,16.8,11,96,rtsp://192.168.166.176:8900/live,,,,,,,,,,
UDP,10.60.11.11,39399,239.2.3.1,6969,MCAS-1-AI2C2,m-f,s,7-r-c,2022-05-04T00:38:48Z,2022-05-03T14:38:48Z,2022-05-03T14:38:48Z,a-f-G-E-V,bae,2.0,0.5,180.654984,32.8772734,0.5,-114.205934,MCAS-1-AI2C2,192.168.42.158:4242:tcp,true,0,0,10,60,0,0,0,0,0,60,100,mcas,180,0,0,r-e,100,99,0,MAVLink,_MAVLink_,16.8,11,96,rtsp://192.168.166.176:8900/live,,,,,,,,,,
UDP,10.60.11.11,41884,239.2.3.1,6969,MCAS-2-AI2C2,m-f,s,7-r-c,2022-05-04T00:38:48Z,2022-05-03T14:38:48Z,2022-05-03T14:38:48Z,a-f-G-E-V,grizB,2.0,0.5,181.75206,32.8787173,0.5,-114.206452,MCAS-2-AI2C2,192.168.42.158:4242:tcp,true,0,0,10,60,0,0,0,0,0,60,100,mcas,180,0,0,r-e,100,99,0,MAVLink,_MAVLink_,16.8,11,96,rtsp://192.168.166.176:8900/live,,,,,,,,,,
UDP,10.60.11.11,57346,239.2.3.1,6969,MCAS-2-AI2C,m-f,s,7-r-c,2022-05-04T00:38:48Z,2022-05-03T14:38:48Z,2022-05-03T14:38:48Z,a-f-G-E-V,grizA,2.0,0.5,184.056198,32.879626,0.5,-114.203558,MCAS-2-AI2C,192.168.42.158:4242:tcp,true,0,0,10,60,0,0,0,0,0,60,100,mcas,180,0,0,r-e,100,99,0,MAVLink,_MAVLink_,16.8,11,96,rtsp://192.168.166.176:8900/live,,,,,,,,,,
UDP,10.60.11.11,49850,239.2.3.1,6969,MCAS-1-AI2C,m-f,s,7-r-c,2022-05-04T00:38:48Z,2022-05-03T14:38:48Z,2022-05-03T14:38:48Z,a-f-G-E-V,m5,2.0,0.5,182.209778,32.8809507,0.5,-114.210646,MCAS-1-AI2C,192.168.42.158:4242:tcp,true,0,0,10,60,0,0,0,0,0,60,100,mcas,180,0,0,r-e,100,99,0,MAVLink,_MAVLink_,16.8,11,96,rtsp://192.168.166.176:8900/live,,,,,,,,,,
UDP,10.60.11.11,39399,239.2.3.1,6969,MCAS-1-AI2C2,m-f,s,7-r-c,2022-05-04T00:38:48Z,2022-05-03T14:38:48Z,2022-05-03T14:38:48Z,a-f-G-E-V,bae,2.0,0.5,180.663101,32.877289,0.5,-114.205925,MCAS-1-AI2C2,192.168.42.158:4242:tcp,true,0,0,10,60,0,0,0,0,0,60,100,mcas,180,0,0,r-e,100,99,0,MAVLink,_MAVLink_,16.8,11,96,rtsp://192.168.166.176:8900/live,,,,,,,,,,
UDP,10.60.11.11,41884,239.2.3.1,6969,MCAS-2-AI2C2,m-f,s,7-r-c,2022-05-04T00:38:48Z,2022-05-03T14:38:48Z,2022-05-03T14:38:48Z,a-f-G-E-V,grizB,2.0,0.5,181.778671,32.8787317,0.5,-114.206438,MCAS-2-AI2C2,192.168.42.158:4242:tcp,true,0,0,10,60,0,0,0,0,0,60,100,mcas,180,0,0,r-e,100,99,0,MAVLink,_MAVLink_,16.8,11,96,rtsp://192.168.166.176:8900/live,,,,,,,,,,
UDP,10.60.11.11,57346,239.2.3.1,6969,MCAS-2-AI2C,m-f,s,7-r-c,2022-05-04T00:38:48Z,2022-05-03T14:38:48Z,2022-05-03T14:38:48Z,a-f-G-E-V,grizA,2.0,0.5,184.072327,32.8796181,0.5,-114.203538,MCAS-2-AI2C,192.168.42.158:4242:tcp,true,0,0,10,60,0,0,0,0,0,60,100,mcas,180,0,0,r-e,100,99,0,MAVLink,_MAVLink_,16.8,11,96,rtsp://192.168.166.176:8900/live,,,,,,,,,,
UDP,10.60.11.11,49850,239.2.3.1,6969,MCAS-1-AI2C,m-f,s,7-r-c,2022-05-04T00:38:48Z,2022-05-03T14:38:48Z,2022-05-03T14:38:48Z,a-f-G-E-V,m5,2.0,0.5,182.201218,32.8809513,0.5,-114.210668,MCAS-1-AI2C,192.168.42.158:4242:tcp,true,0,0,10,60,0,0,0,0,0,60,100,mcas,180,0,0,r-e,100,99,0,MAVLink,_MAVLink_,16.8,11,96,rtsp://192.168.166.176:8900/live,,,,,,,,,,
UDP,10.60.11.11,39399,239.2.3.1,6969,MCAS-1-AI2C2,m-f,s,7-r-c,2022-05-04T00:38:48Z,2022-05-03T14:38:48Z,2022-05-03T14:38:48Z,a-f-G-E-V,bae,2.0,0.5,180.677078,32.8773048,0.5,-114.205917,MCAS-1-AI2C2,192.168.42.158:4242:tcp,true,0,0,10,60,0,0,0,0,0,60,100,mcas,180,0,0,r-e,100,99,0,MAVLink,_MAVLink_,16.8,11,96,rtsp://192.168.166.176:8900/live,,,,,,,,,,
UDP,10.60.11.11,41884,239.2.3.1,6969,MCAS-2-AI2C2,m-f,s,7-r-c,2022-05-04T00:38:48Z,2022-05-03T14:38:48Z,2022-05-03T14:38:48Z,a-f-G-E-V,grizB,2.0,0.5,181.800705,32.8787457,0.5,-114.206424,MCAS-2-AI2C2,192.168.42.158:4242:tcp,true,0,0,10,60,0,0,0,0,0,60,100,mcas,180,0,0,r-e,100,99,0,MAVLink,_MAVLink_,16.8,11,96,rtsp://192.168.166.176:8900/live,,,,,,,,,,
UDP,10.60.11.11,57346,239.2.3.1,6969,MCAS-2-AI2C,m-f,s,7-r-c,2022-05-04T00:38:48Z,2022-05-03T14:38:48Z,2022-05-03T14:38:48Z,a-f-G-E-V,grizA,2.0,0.5,184.071762,32.8796107,0.5,-114.203518,MCAS-2-AI2C,192.168.42.158:4242:tcp,true,0,0,10,60,0,0,0,0,0,60,100,mcas,180,0,0,r-e,100,99,0,MAVLink,_MAVLink_,16.8,11,96,rtsp://192.168.166.176:8900/live,,,,,,,,,,
UDP,10.60.11.11,49850,239.2.3.1,6969,MCAS-1-AI2C,m-f,s,7-r-c,2022-05-04T00:38:48Z,2022-05-03T14:38:48Z,2022-05-03T14:38:48Z,a-f-G-E-V,m5,2.0,0.5,182.202332,32.8809513,0.5,-114.21069,MCAS-1-AI2C,192.168.42.158:4242:tcp,true,0,0,10,60,0,0,0,0,0,60,100,mcas,180,0,0,r-e,100,99,0,MAVLink,_MAVLink_,16.8,11,96,rtsp://192.168.166.176:8900/live,,,,,,,,,,
UDP,10.60.11.11,39399,239.2.3.1,6969,MCAS-1-AI2C2,m-f,s,7-r-c,2022-05-04T00:38:48Z,2022-05-03T14:38:48Z,2022-05-03T14:38:48Z,a-f-G-E-V,bae,2.0,0.5,180.701965,32.8773207,0.5,-114.205909,MCAS-1-AI2C2,192.168.42.158:4242:tcp,true,0,0,10,60,0,0,0,0,0,60,100,mcas,180,0,0,r-e,100,99,0,MAVLink,_MAVLink_,16.8,11,96,rtsp://192.168.166.176:8900/live,,,,,,,,,,
UDP,10.60.11.11,41884,239.2.3.1,6969,MCAS-2-AI2C2,m-f,s,7-r-c,2022-05-04T00:38:48Z,2022-05-03T14:38:48Z,2022-05-03T14:38:48Z,a-f-G-E-V,grizB,2.0,0.5,181.83075,32.8787592,0.5,-114.206411,MCAS-2-AI2C2,192.168.42.158:4242:tcp,true,0,0,10,60,0,0,0,0,0,60,100,mcas,180,0,0,r-e,100,99,0,MAVLink,_MAVLink_,16.8,11,96,rtsp://192.168.166.176:8900/live,,,,,,,,,,
UDP,10.60.11.11,57346,239.2.3.1,6969,MCAS-2-AI2C,m-f,s,7-r-c,2022-05-04T00:38:48Z,2022-05-03T14:38:48Z,2022-05-03T14:38:48Z,a-f-G-E-V,grizA,2.0,0.5,184.068832,32.8796042,0.5,-114.203496,MCAS-2-AI2C,192.168.42.158:4242:tcp,true,0,0,10,60,0,0,0,0,0,60,100,mcas,180,0,0,r-e,100,99,0,MAVLink,_MAVLink_,16.8,11,96,rtsp://192.168.166.176:8900/live,,,,,,,,,,
UDP,10.60.11.11,49850,239.2.3.1,6969,MCAS-1-AI2C,m-f,s,7-r-c,2022-05-04T00:38:48Z,2022-05-03T14:38:48Z,2022-05-03T14:38:48Z,a-f-G-E-V,m5,2.0,0.5,182.207184,32.8809507,0.5,-114.210712,MCAS-1-AI2C,192.168.42.158:4242:tcp,true,0,0,10,60,0,0,0,0,0,60,100,mcas,180,0,0,r-e,100,99,0,MAVLink,_MAVLink_,16.8,11,96,rtsp://192.168.166.176:8900/live,,,,,,,,,,
UDP,10.60.11.11,39399,239.2.3.1,6969,MCAS-1-AI2C2,m-f,s,7-r-c,2022-05-04T00:38:48Z,2022-05-03T14:38:48Z,2022-05-03T14:38:48Z,a-f-G-E-V,bae,2.0,0.5,180.715958,32.8773368,0.5,-114.205902,MCAS-1-AI2C2,192.168.42.158:4242:tcp,true,0,0,10,60,0,0,0,0,0,60,100,mcas,180,0,0,r-e,100,99,0,MAVLink,_MAVLink_,16.8,11,96,rtsp://192.168.166.176:8900/live,,,,,,,,,,
UDP,10.60.11.11,41884,239.2.3.1,6969,MCAS-2-AI2C2,m-f,s,7-r-c,2022-05-04T00:38:48Z,2022-05-03T14:38:48Z,2022-05-03T14:38:48Z,a-f-G-E-V,grizB,2.0,0.5,181.849396,32.8787729,0.5,-114.206396,MCAS-2-AI2C2,192.168.42.158:4242:tcp,true,0,0,10,60,0,0,0,0,0,60,100,mcas,180,0,0,r-e,100,99,0,MAVLink,_MAVLink_,16.8,11,96,rtsp://192.168.166.176:8900/live,,,,,,,,,,
UDP,10.60.11.11,57346,239.2.3.1,6969,MCAS-2-AI2C,m-f,s,7-r-c,2022-05-04T00:38:48Z,2022-05-03T14:38:48Z,2022-05-03T14:38:48Z,a-f-G-E-V,grizA,2.0,0.5,184.02301,32.8795978,0.5,-114.203476,MCAS-2-AI2C,192.168.42.158:4242:tcp,true,0,0,10,60,0,0,0,0,0,60,100,mcas,180,0,0,r-e,100,99,0,MAVLink,_MAVLink_,16.8,11,96,rtsp://192.168.166.176:8900/live,,,,,,,,,,
UDP,10.60.11.11,49850,239.2.3.1,6969,MCAS-1-AI2C,m-f,s,7-r-c,2022-05-04T00:38:48Z,2022-05-03T14:38:48Z,2022-05-03T14:38:48Z,a-f-G-E-V,m5,2.0,0.5,182.201523,32.8809491,0.5,-114.210734,MCAS-1-AI2C,192.168.42.158:4242:tcp,true,0,0,10,60,0,0,0,0,0,60,100,mcas,180,0,0,r-e,100,99,0,MAVLink,_MAVLink_,16.8,11,96,rtsp://192.168.166.176:8900/live,,,,,,,,,,
UDP,10.60.11.11,39399,239.2.3.1,6969,MCAS-1-AI2C2,m-f,s,7-r-c,2022-05-04T00:38:48Z,2022-05-03T14:38:48Z,2022-05-03T14:38:48Z,a-f-G-E-V,bae,2.0,0.5,180.723236,32.8773536,0.5,-114.205896,MCAS-1-AI2C2,192.168.42.158:4242:tcp,true,0,0,10,60,0,0,0,0,0,60,100,mcas,180,0,0,r-e,100,99,0,MAVLink,_MAVLink_,16.8,11,96,rtsp://192.168.166.176:8900/live,,,,,,,,,,
UDP,10.60.11.11,41884,239.2.3.1,6969,MCAS-2-AI2C2,m-f,s,7-r-c,2022-05-04T00:38:48Z,2022-05-03T14:38:48Z,2022-05-03T14:38:48Z,a-f-G-E-V,grizB,2.0,0.5,181.882004,32.8787859,0.5,-114.206382,MCAS-2-AI2C2,192.168.42.158:4242:tcp,true,0,0,10,60,0,0,0,0,0,60,100,mcas,180,0,0,r-e,100,99,0,MAVLink,_MAVLink_,16.8,11,96,rtsp://192.168.166.176:8900/live,,,,,,,,,,
UDP,10.60.11.11,57346,239.2.3.1,6969,MCAS-2-AI2C,m-f,s,7-r-c,2022-05-04T00:38:48Z,2022-05-03T14:38:48Z,2022-05-03T14:38:48Z,a-f-G-E-V,grizA,2.0,0.5,184.013367,32.8795922,0.5,-114.203456,MCAS-2-AI2C,192.168.42.158:4242:tcp,true,0,0,10,60,0,0,0,0,0,60,100,mcas,180,0,0,r-e,100,99,0,MAVLink,_MAVLink_,16.8,11,96,rtsp://192.168.166.176:8900/live,,,,,,,,,,
UDP,10.60.11.11,49850,239.2.3.1,6969,MCAS-1-AI2C,m-f,s,7-r-c,2022-05-04T00:38:48Z,2022-05-03T14:38:48Z,2022-05-03T14:38:48Z,a-f-G-E-V,m5,2.0,0.5,182.186798,32.880947,0.5,-114.210755,MCAS-1-AI2C,192.168.42.158:4242:tcp,true,0,0,10,60,0,0,0,0,0,60,100,mcas,180,0,0,r-e,100,99,0,MAVLink,_MAVLink_,16.8,11,96,rtsp://192.168.166.176:8900/live,,,,,,,,,,
UDP,10.60.11.11,39399,239.2.3.1,6969,MCAS-1-AI2C2,m-f,s,7-r-c,2022-05-04T00:38:48Z,2022-05-03T14:38:48Z,2022-05-03T14:38:48Z,a-f-G-E-V,bae,2.0,0.5,180.729065,32.8773702,0.5,-114.20589,MCAS-1-AI2C2,192.168.42.158:4242:tcp,true,0,0,10,60,0,0,0,0,0,60,100,mcas,180,0,0,r-e,100,99,0,MAVLink,_MAVLink_,16.8,11,96,rtsp://192.168.166.176:8900/live,,,,,,,,,,
UDP,10.60.11.11,41884,239.2.3.1,6969,MCAS-2-AI2C2,m-f,s,7-r-c,2022-05-04T00:38:48Z,2022-05-03T14:38:48Z,2022-05-03T14:38:48Z,a-f-G-E-V,grizB,2.0,0.5,181.901825,32.8787989,0.5,-114.206367,MCAS-2-AI2C2,192.168.42.158:4242:tcp,true,0,0,10,60,0,0,0,0,0,60,100,mcas,180,0,0,r-e,100,99,0,MAVLink,_MAVLink_,16.8,11,96,rtsp://192.168.166.176:8900/live,,,,,,,,,,
UDP,10.60.11.11,57346,239.2.3.1,6969,MCAS-2-AI2C,m-f,s,7-r-c,2022-05-04T00:38:48Z,2022-05-03T14:38:48Z,2022-05-03T14:38:48Z,a-f-G-E-V,grizA,2.0,0.5,183.960327,32.879586,0.5,-114.203434,MCAS-2-AI2C,192.168.42.158:4242:tcp,true,0,0,10,60,0,0,0,0,0,60,100,mcas,180,0,0,r-e,100,99,0,MAVLink,_MAVLink_,16.8,11,96,rtsp://192.168.166.176:8900/live,,,,,,,,,,
UDP,10.60.11.11,49850,239.2.3.1,6969,MCAS-1-AI2C,m-f,s,7-r-c,2022-05-04T00:38:48Z,2022-05-03T14:38:48Z,2022-05-03T14:38:48Z,a-f-G-E-V,m5,2.0,0.5,182.165268,32.8809438,0.5,-114.210777,MCAS-1-AI2C,192.168.42.158:4242:tcp,true,0,0,10,60,0,0,0,0,0,60,100,mcas,180,0,0,r-e,100,99,0,MAVLink,_MAVLink_,16.8,11,96,rtsp://192.168.166.176:8900/live,,,,,,,,,,
UDP,10.60.11.11,39399,239.2.3.1,6969,MCAS-1-AI2C2,m-f,s,7-r-c,2022-05-04T00:38:48Z,2022-05-03T14:38:48Z,2022-05-03T14:38:48Z,a-f-G-E-V,bae,2.0,0.5,180.755707,32.8773871,0.5,-114.205885,MCAS-1-AI2C2,192.168.42.158:4242:tcp,true,0,0,10,60,0,0,0,0,0,60,100,mcas,180,0,0,r-e,100,99,0,MAVLink,_MAVLink_,16.8,11,96,rtsp://192.168.166.176:8900/live,,,,,,,,,,
UDP,10.60.11.11,41884,239.2.3.1,6969,MCAS-2-AI2C2,m-f,s,7-r-c,2022-05-04T00:38:48Z,2022-05-03T14:38:48Z,2022-05-03T14:38:48Z,a-f-G-E-V,grizB,2.0,0.5,181.928101,32.8788118,0.5,-114.206353,MCAS-2-AI2C2,192.168.42.158:4242:tcp,true,0,0,10,60,0,0,0,0,0,60,100,mcas,180,0,0,r-e,100,99,0,MAVLink,_MAVLink_,16.8,11,96,rtsp://192.168.166.176:8900/live,,,,,,,,,,
UDP,10.60.11.11,57346,239.2.3.1,6969,MCAS-2-AI2C,m-f,s,7-r-c,2022-05-04T00:38:48Z,2022-05-03T14:38:48Z,2022-05-03T14:38:48Z,a-f-G-E-V,grizA,2.0,0.5,183.748749,32.8795812,0.5,-114.203409,MCAS-2-AI2C,192.168.42.158:4242:tcp,true,0,0,10,60,0,0,0,0,0,60,100,mcas,180,0,0,r-e,100,99,0,MAVLink,_MAVLink_,16.8,11,96,rtsp://192.168.166.176:8900/live,,,,,,,,,,
UDP,10.60.11.11,49850,239.2.3.1,6969,MCAS-1-AI2C,m-f,s,7-r-c,2022-05-04T00:38:48Z,2022-05-03T14:38:48Z,2022-05-03T14:38:48Z,a-f-G-E-V,m5,2.0,0.5,182.133392,32.8809399,0.5,-114.210799,MCAS-1-AI2C,192.168.42.158:4242:tcp,true,0,0,10,60,0,0,0,0,0,60,100,mcas,180,0,0,r-e,100,99,0,MAVLink,_MAVLink_,16.8,11,96,rtsp://192.168.166.176:8900/live,,,,,,,,,,
UDP,10.60.11.11,39399,239.2.3.1,6969,MCAS-1-AI2C2,m-f,s,7-r-c,2022-05-04T00:38:48Z,2022-05-03T14:38:48Z,2022-05-03T14:38:48Z,a-f-G-E-V,bae,2.0,0.5,180.778122,32.8774043,0.5,-114.20588,MCAS-1-AI2C2,192.168.42.158:4242:tcp,true,0,0,10,60,0,0,0,0,0,60,100,mcas,180,0,0,r-e,100,99,0,MAVLink,_MAVLink_,16.8,11,96,rtsp://192.168.166.176:8900/live,,,,,,,,,,
UDP,10.60.11.11,41884,239.2.3.1,6969,MCAS-2-AI2C2,m-f,s,7-r-c,2022-05-04T00:38:48Z,2022-05-03T14:38:48Z,2022-05-03T14:38:48Z,a-f-G-E-V,grizB,2.0,0.5,181.959976,32.8788243,0.5,-114.206338,MCAS-2-AI2C2,192.168.42.158:4242:tcp,true,0,0,10,60,0,0,0,0,0,60,100,mcas,180,0,0,r-e,100,99,0,MAVLink,_MAVLink_,16.8,11,96,rtsp://192.168.166.176:8900/live,,,,,,,,,,
UDP,10.60.11.11,57346,239.2.3.1,6969,MCAS-2-AI2C,m-f,s,7-r-c,2022-05-04T00:38:48Z,2022-05-03T14:38:48Z,2022-05-03T14:38:48Z,a-f-G-E-V,grizA,2.0,0.5,183.597061,32.8795781,0.5,-114.20339,MCAS-2-AI2C,192.168.42.158:4242:tcp,true,0,0,10,60,0,0,0,0,0,60,100,mcas,180,0,0,r-e,100,99,0,MAVLink,_MAVLink_,16.8,11,96,rtsp://192.168.166.176:8900/live,,,,,,,,,,
UDP,10.60.11.11,49850,239.2.3.1,6969,MCAS-1-AI2C,m-f,s,7-r-c,2022-05-04T00:38:48Z,2022-05-03T14:38:48Z,2022-05-03T14:38:48Z,a-f-G-E-V,m5,2.0,0.5,182.1026,32.8809351,0.5,-114.210821,MCAS-1-AI2C,192.168.42.158:4242:tcp,true,0,0,10,60,0,0,0,0,0,60,100,mcas,180,0,0,r-e,100,99,0,MAVLink,_MAVLink_,16.8,11,96,rtsp://192.168.166.176:8900/live,,,,,,,,,,
UDP,10.60.11.11,39399,239.2.3.1,6969,MCAS-1-AI2C2,m-f,s,7-r-c,2022-05-04T00:38:48Z,2022-05-03T14:38:48Z,2022-05-03T14:38:48Z,a-f-G-E-V,bae,2.0,0.5,180.791687,32.877422,0.5,-114.205875,MCAS-1-AI2C2,192.168.42.158:4242:tcp,true,0,0,10,60,0,0,0,0,0,60,100,mcas,180,0,0,r-e,100,99,0,MAVLink,_MAVLink_,16.8,11,96,rtsp://192.168.166.176:8900/live,,,,,,,,,,
UDP,10.60.11.11,41884,239.2.3.1,6969,MCAS-2-AI2C2,m-f,s,7-r-c,2022-05-04T00:38:48Z,2022-05-03T14:38:48Z,2022-05-03T14:38:48Z,a-f-G-E-V,grizB,2.0,0.5,181.985474,32.8788373,0.5,-114.206323,MCAS-2-AI2C2,192.168.42.158:4242:tcp,true,0,0,10,60,0,0,0,0,0,60,100,mcas,180,0,0,r-e,100,99,0,MAVLink,_MAVLink_,16.8,11,96,rtsp://192.168.166.176:8900/live,,,,,,,,,,
UDP,10.60.11.11,57346,239.2.3.1,6969,MCAS-2-AI2C,m-f,s,7-r-c,2022-05-04T00:38:48Z,2022-05-03T14:38:48Z,2022-05-03T14:38:48Z,a-f-G-E-V,grizA,2.0,0.5,183.646179,32.8795757,0.5,-114.203379,MCAS-2-AI2C,192.168.42.158:4242:tcp,true,0,0,10,60,0,0,0,0,0,60,100,mcas,180,0,0,r-e,100,99,0,MAVLink,_MAVLink_,16.8,11,96,rtsp://192.168.166.176:8900/live,,,,,,,,,,
UDP,10.60.11.11,49850,239.2.3.1,6969,MCAS-1-AI2C,m-f,s,7-r-c,2022-05-04T00:38:48Z,2022-05-03T14:38:48Z,2022-05-03T14:38:48Z,a-f-G-E-V,m5,2.0,0.5,182.07222,32.8809296,0.5,-114.210842,MCAS-1-AI2C,192.168.42.158:4242:tcp,true,0,0,10,60,0,0,0,0,0,60,100,mcas,180,0,0,r-e,100,99,0,MAVLink,_MAVLink_,16.8,11,96,rtsp://192.168.166.176:8900/live,,,,,,,,,,
UDP,10.60.11.11,39399,239.2.3.1,6969,MCAS-1-AI2C2,m-f,s,7-r-c,2022-05-04T00:38:48Z,2022-05-03T14:38:48Z,2022-05-03T14:38:48Z,a-f-G-E-V,bae,2.0,0.5,180.804626,32.8774398,0.5,-114.205871,MCAS-1-AI2C2,192.168.42.158:4242:tcp,true,0,0,10,60,0,0,0,0,0,60,100,mcas,180,0,0,r-e,100,99,0,MAVLink,_MAVLink_,16.8,11,96,rtsp://192.168.166.176:8900/live,,,,,,,,,,
UDP,10.60.11.11,41884,239.2.3.1,6969,MCAS-2-AI2C2,m-f,s,7-r-c,2022-05-04T00:38:48Z,2022-05-03T14:38:48Z,2022-05-03T14:38:48Z,a-f-G-E-V,grizB,2.0,0.5,182.004761,32.8788494,0.5,-114.206308,MCAS-2-AI2C2,192.168.42.158:4242:tcp,true,0,0,10,60,0,0,0,0,0,60,100,mcas,180,0,0,r-e,100,99,0,MAVLink,_MAVLink_,16.8,11,96,rtsp://192.168.166.176:8900/live,,,,,,,,,,
UDP,10.60.11.11,57346,239.2.3.1,6969,MCAS-2-AI2C,m-f,s,7-r-c,2022-05-04T00:38:48Z,2022-05-03T14:38:48Z,2022-05-03T14:38:48Z,a-f-G-E-V,grizA,2.0,0.5,183.674591,32.8795736,0.5,-114.203362,MCAS-2-AI2C,192.168.42.158:4242:tcp,true,0,0,10,60,0,0,0,0,0,60,100,mcas,180,0,0,r-e,100,99,0,MAVLink,_MAVLink_,16.8,11,96,rtsp://192.168.166.176:8900/live,,,,,,,,,,
UDP,10.60.11.11,49850,239.2.3.1,6969,MCAS-1-AI2C,m-f,s,7-r-c,2022-05-04T00:38:48Z,2022-05-03T14:38:48Z,2022-05-03T14:38:48Z,a-f-G-E-V,m5,2.0,0.5,182.043091,32.8809234,0.5,-114.210863,MCAS-1-AI2C,192.168.42.158:4242:tcp,true,0,0,10,60,0,0,0,0,0,60,100,mcas,180,0,0,r-e,100,99,0,MAVLink,_MAVLink_,16.8,11,96,rtsp://192.168.166.176:8900/live,,,,,,,,,,
UDP,10.60.11.11,39399,239.2.3.1,6969,MCAS-1-AI2C2,m-f,s,7-r-c,2022-05-04T00:38:48Z,2022-05-03T14:38:48Z,2022-05-03T14:38:48Z,a-f-G-E-V,bae,2.0,0.5,180.813293,32.8774579,0.5,-114.205867,MCAS-1-AI2C2,192.168.42.158:4242:tcp,true,0,0,10,60,0,0,0,0,0,60,100,mcas,180,0,0,r-e,100,99,0,MAVLink,_MAVLink_,16.8,11,96,rtsp://192.168.166.176:8900/live,,,,,,,,,,
UDP,10.60.11.11,41884,239.2.3.1,6969,MCAS-2-AI2C2,m-f,s,7-r-c,2022-05-04T00:38:48Z,2022-05-03T14:38:48Z,2022-05-03T14:38:48Z,a-f-G-E-V,grizB,2.0,0.5,182.016663,32.8788618,0.5,-114.206294,MCAS-2-AI2C2,192.168.42.158:4242:tcp,true,0,0,10,60,0,0,0,0,0,60,100,mcas,180,0,0,r-e,100,99,0,MAVLink,_MAVLink_,16.8,11,96,rtsp://192.168.166.176:8900/live,,,,,,,,,,
UDP,10.60.11.11,57346,239.2.3.1,6969,MCAS-2-AI2C,m-f,s,7-r-c,2022-05-04T00:38:48Z,2022-05-03T14:38:48Z,2022-05-03T14:38:48Z,a-f-G-E-V,grizA,2.0,0.5,183.606964,32.8795696,0.5,-114.203334,MCAS-2-AI2C,192.168.42.158:4242:tcp,true,0,0,10,60,0,0,0,0,0,60,100,mcas,180,0,0,r-e,100,99,0,MAVLink,_MAVLink_,16.8,11,96,rtsp://192.168.166.176:8900/live,,,,,,,,,,
UDP,10.60.11.11,49850,239.2.3.1,6969,MCAS-1-AI2C,m-f,s,7-r-c,2022-05-04T00:38:48Z,2022-05-03T14:38:48Z,2022-05-03T14:38:48Z,a-f-G-E-V,m5,2.0,0.5,182.016022,32.8809169,0.5,-114.210882,MCAS-1-AI2C,192.168.42.158:4242:tcp,true,0,0,10,60,0,0,0,0,0,60,100,mcas,180,0,0,r-e,100,99,0,MAVLink,_MAVLink_,16.8,11,96,rtsp://192.168.166.176:8900/live,,,,,,,,,,
UDP,10.60.11.11,39399,239.2.3.1,6969,MCAS-1-AI2C2,m-f,s,7-r-c,2022-05-04T00:38:48Z,2022-05-03T14:38:48Z,2022-05-03T14:38:48Z,a-f-G-E-V,bae,2.0,0.5,180.822662,32.8774759,0.5,-114.205864,MCAS-1-AI2C2,192.168.42.158:4242:tcp,true,0,0,10,60,0,0,0,0,0,60,100,mcas,180,0,0,r-e,100,99,0,MAVLink,_MAVLink_,16.8,11,96,rtsp://192.168.166.176:8900/live,,,,,,,,,,
UDP,10.60.11.11,41884,239.2.3.1,6969,MCAS-2-AI2C2,m-f,s,7-r-c,2022-05-04T00:38:48Z,2022-05-03T14:38:48Z,2022-05-03T14:38:48Z,a-f-G-E-V,grizB,2.0,0.5,182.013977,32.8788755,0.5,-114.206279,MCAS-2-AI2C2,192.168.42.158:4242:tcp,true,0,0,10,60,0,0,0,0,0,60,100,mcas,180,0,0,r-e,100,99,0,MAVLink,_MAVLink_,16.8,11,96,rtsp://192.168.166.176:8900/live,,,,,,,,,,
UDP,10.60.11.11,57346,239.2.3.1,6969,MCAS-2-AI2C,m-f,s,7-r-c,2022-05-04T00:38:48Z,2022-05-03T14:38:48Z,2022-05-03T14:38:48Z,a-f-G-E-V,grizA,2.0,0.5,183.666656,32.8795678,0.5,-114.203314,MCAS-2-AI2C,192.168.42.158:4242:tcp,true,0,0,10,60,0,0,0,0,0,60,100,mcas,180,0,0,r-e,100,99,0,MAVLink,_MAVLink_,16.8,11,96,rtsp://192.168.166.176:8900/live,,,,,,,,,,
UDP,10.60.11.11,49850,239.2.3.1,6969,MCAS-1-AI2C,m-f,s,7-r-c,2022-05-04T00:38:48Z,2022-05-03T14:38:48Z,2022-05-03T14:38:48Z,a-f-G-E-V,m5,2.0,0.5,181.986603,32.8809093,0.5,-114.210901,MCAS-1-AI2C,192.168.42.158:4242:tcp,true,0,0,10,60,0,0,0,0,0,60,100,mcas,180,0,0,r-e,100,99,0,MAVLink,_MAVLink_,16.8,11,96,rtsp://192.168.166.176:8900/live,,,,,,,,,,
UDP,10.60.11.11,39399,239.2.3.1,6969,MCAS-1-AI2C2,m-f,s,7-r-c,2022-05-04T00:38:48Z,2022-05-03T14:38:48Z,2022-05-03T14:38:48Z,a-f-G-E-V,bae,2.0,0.5,180.818207,32.8774939,0.5,-114.20586,MCAS-1-AI2C2,192.168.42.158:4242:tcp,true,0,0,10,60,0,0,0,0,0,60,100,mcas,180,0,0,r-e,100,99,0,MAVLink,_MAVLink_,16.8,11,96,rtsp://192.168.166.176:8900/live,,,,,,,,,,
UDP,10.60.11.11,41884,239.2.3.1,6969,MCAS-2-AI2C2,m-f,s,7-r-c,2022-05-04T00:38:48Z,2022-05-03T14:38:48Z,2022-05-03T14:38:48Z,a-f-G-E-V,grizB,2.0,0.5,182.05983,32.8788894,0.5,-114.206266,MCAS-2-AI2C2,192.168.42.158:4242:tcp,true,0,0,10,60,0,0,0,0,0,60,100,mcas,180,0,0,r-e,100,99,0,MAVLink,_MAVLink_,16.8,11,96,rtsp://192.168.166.176:8900/live,,,,,,,,,,
UDP,10.60.11.11,57346,239.2.3.1,6969,MCAS-2-AI2C,m-f,s,7-r-c,2022-05-04T00:38:48Z,2022-05-03T14:38:48Z,2022-05-03T14:38:48Z,a-f-G-E-V,grizA,2.0,0.5,183.68866,32.8795666,0.5,-114.203299,MCAS-2-AI2C,192.168.42.158:4242:tcp,true,0,0,10,60,0,0,0,0,0,60,100,mcas,180,0,0,r-e,100,99,0,MAVLink,_MAVLink_,16.8,11,96,rtsp://192.168.166.176:8900/live,,,,,,,,,,
UDP,10.60.11.11,49850,239.2.3.1,6969,MCAS-1-AI2C,m-f,s,7-r-c,2022-05-04T00:38:48Z,2022-05-03T14:38:48Z,2022-05-03T14:38:48Z,a-f-G-E-V,m5,2.0,0.5,181.961731,32.8809005,0.5,-114.210921,MCAS-1-AI2C,192.168.42.158:4242:tcp,true,0,0,10,60,0,0,0,0,0,60,100,mcas,180,0,0,r-e,100,99,0,MAVLink,_MAVLink_,16.8,11,96,rtsp://192.168.166.176:8900/live,,,,,,,,,,
UDP,10.60.11.11,39399,239.2.3.1,6969,MCAS-1-AI2C2,m-f,s,7-r-c,2022-05-04T00:38:48Z,2022-05-03T14:38:48Z,2022-05-03T14:38:48Z,a-f-G-E-V,bae,2.0,0.5,180.810318,32.8775117,0.5,-114.205857,MCAS-1-AI2C2,192.168.42.158:4242:tcp,true,0,0,10,60,0,0,0,0,0,60,100,mcas,180,0,0,r-e,100,99,0,MAVLink,_MAVLink_,16.8,11,96,rtsp://192.168.166.176:8900/live,,,,,,,,,,
UDP,10.60.11.11,41884,239.2.3.1,6969,MCAS-2-AI2C2,m-f,s,7-r-c,2022-05-04T00:38:48Z,2022-05-03T14:38:48Z,2022-05-03T14:38:48Z,a-f-G-E-V,grizB,2.0,0.5,182.06459,32.8789031,0.5,-114.206252,MCAS-2-AI2C2,192.168.42.158:4242:tcp,true,0,0,10,60,0,0,0,0,0,60,100,mcas,180,0,0,r-e,100,99,0,MAVLink,_MAVLink_,16.8,11,96,rtsp://192.168.166.176:8900/live,,,,,,,,,,
UDP,10.60.11.11,57346,239.2.3.1,6969,MCAS-2-AI2C,m-f,s,7-r-c,2022-05-04T00:38:48Z,2022-05-03T14:38:48Z,2022-05-03T14:38:48Z,a-f-G-E-V,grizA,2.0,0.5,183.705627,32.8795651,0.5,-114.203275,MCAS-2-AI2C,192.168.42.158:4242:tcp,true,0,0,10,60,0,0,0,0,0,60,100,mcas,180,0,0,r-e,100,99,0,MAVLink,_MAVLink_,16.8,11,96,rtsp://192.168.166.176:8900/live,,,,,,,,,,
UDP,10.60.11.11,49850,239.2.3.1,6969,MCAS-1-AI2C,m-f,s,7-r-c,2022-05-04T00:38:48Z,2022-05-03T14:38:48Z,2022-05-03T14:38:48Z,a-f-G-E-V,m5,2.0,0.5,181.940796,32.8808912,0.5,-114.21094,MCAS-1-AI2C,192.168.42.158:4242:tcp,true,0,0,10,60,0,0,0,0,0,60,100,mcas,180,0,0,r-e,100,99,0,MAVLink,_MAVLink_,16.8,11,96,rtsp://192.168.166.176:8900/live,,,,,,,,,,
UDP,10.60.11.11,39399,239.2.3.1,6969,MCAS-1-AI2C2,m-f,s,7-r-c,2022-05-04T00:38:48Z,2022-05-03T14:38:48Z,2022-05-03T14:38:48Z,a-f-G-E-V,bae,2.0,0.5,180.810791,32.8775303,0.5,-114.205854,MCAS-1-AI2C2,192.168.42.158:4242:tcp,true,0,0,10,60,0,0,0,0,0,60,100,mcas,180,0,0,r-e,100,99,0,MAVLink,_MAVLink_,16.8,11,96,rtsp://192.168.166.176:8900/live,,,,,,,,,,
UDP,10.60.11.11,41884,239.2.3.1,6969,MCAS-2-AI2C2,m-f,s,7-r-c,2022-05-04T00:38:48Z,2022-05-03T14:38:48Z,2022-05-03T14:38:48Z,a-f-G-E-V,grizB,2.0,0.5,182.067413,32.8789167,0.5,-114.206237,MCAS-2-AI2C2,192.168.42.158:4242:tcp,true,0,0,10,60,0,0,0,0,0,60,100,mcas,180,0,0,r-e,100,99,0,MAVLink,_MAVLink_,16.8,11,96,rtsp://192.168.166.176:8900/live,,,,,,,,,,
